[
  {
    "city": "Allentown",
    "code": "ABE",
    "country": "United States",
    "icao": "KABE",
    "lat": "40.6514",
    "lon": "-75.4342",
    "name": "Lehigh Valley International Airport",
    "state": "Pennsylvania",
    "woeid": "12518581"
  },
  {
    "city": "Abilene",
    "code": "ABI",
    "country": "United States",
    "icao": "KABI",
    "lat": "32.4164",
    "lon": "-99.6803",
    "name": "Abilene Regional Airport",
    "state": "Texas",
    "woeid": "12518518"
  },
  {
    "city": "Kiana",
    "code": "ABL",
    "country": "United States",
    "icao": "",
    "lat": "67.1058",
    "lon": "-157.854",
    "name": "Ambler Airport",
    "state": "Alaska",
    "woeid": "12518600"
  },
  {
    "city": "Albuquerque",
    "code": "ABQ",
    "country": "United States",
    "icao": "KABQ",
    "lat": "35.0494",
    "lon": "-106.625",
    "name": "Albuquerque International Airport",
    "state": "New Mexico",
    "woeid": "12518564"
  },
  {
    "city": "Aberdeen",
    "code": "ABR",
    "country": "United States",
    "icao": "KABR",
    "lat": "45.4536",
    "lon": "-98.4189",
    "name": "Aberdeen Regional Airport",
    "state": "South Dakota",
    "woeid": "12518514"
  },
  {
    "city": "Albany",
    "code": "ABY",
    "country": "United States",
    "icao": "KABY",
    "lat": "31.5328",
    "lon": "-84.1867",
    "name": "Southwest Georgia Regional Airport",
    "state": "Georgia",
    "woeid": "12521922"
  },
  {
    "city": "Nantucket",
    "code": "ACK",
    "country": "United States",
    "icao": "KACK",
    "lat": "41.2568",
    "lon": "-70.0649",
    "name": "Nantucket Memorial Airport",
    "state": "Massachusetts",
    "woeid": "12521076"
  },
  {
    "city": "Waco",
    "code": "ACT",
    "country": "United States",
    "icao": "KACT",
    "lat": "31.609",
    "lon": "-97.2234",
    "name": "Waco Regional Airport",
    "state": "Texas",
    "woeid": "12522299"
  },
  {
    "city": "Mckinleyville",
    "code": "ACV",
    "country": "United States",
    "icao": "KACV",
    "lat": "40.9698",
    "lon": "-124.108",
    "name": "Arcata Airport",
    "state": "California",
    "woeid": "12518649"
  },
  {
    "city": "Egg Harbor City",
    "code": "ACY",
    "country": "United States",
    "icao": "KACY",
    "lat": "39.4512",
    "lon": "-74.5716",
    "name": "Atlantic City International Airport",
    "state": "New Jersey",
    "woeid": "12518689"
  },
  {
    "city": "Adak",
    "code": "ADK",
    "country": "United States",
    "icao": "PADK",
    "lat": "51.88",
    "lon": "-176.639",
    "name": "Adak Airport",
    "state": "Alaska",
    "woeid": "12518524"
  },
  {
    "city": "Kodiak",
    "code": "ADQ",
    "country": "United States",
    "icao": "PADQ",
    "lat": "57.7545",
    "lon": "-152.512",
    "name": "Kodiak Airport",
    "state": "Alaska",
    "woeid": "12520492"
  },
  {
    "city": "Allakaket",
    "code": "AET",
    "country": "United States",
    "icao": "",
    "lat": "66.55",
    "lon": "-152.65",
    "name": "Allakaket Airport",
    "state": "Alaska",
    "woeid": "12524551"
  },
  {
    "city": "Alexandria",
    "code": "AEX",
    "country": "United States",
    "icao": "KAEX",
    "lat": "31.323",
    "lon": "-92.5417",
    "name": "Alexandria International Airport",
    "state": "Louisiana",
    "woeid": "12519648"
  },
  {
    "city": "Angoon",
    "code": "AGN",
    "country": "United States",
    "icao": "PAGN",
    "lat": "57.4996",
    "lon": "-134.577",
    "name": "Angoon Airport",
    "state": "Alaska",
    "woeid": "12524552"
  },
  {
    "city": "Augusta",
    "code": "AGS",
    "country": "United States",
    "icao": "KAGS",
    "lat": "33.3735",
    "lon": "-81.9732",
    "name": "Bush Field Airport",
    "state": "Georgia",
    "woeid": "12518987"
  },
  {
    "city": "Herlong",
    "code": "AHC",
    "country": "United States",
    "icao": "KAHC",
    "lat": "40.2664",
    "lon": "-120.151",
    "name": "Amedee Army Air Field",
    "state": "California",
    "woeid": "12518602"
  },
  {
    "city": "Alliance",
    "code": "AIA",
    "country": "United States",
    "icao": "KAIA",
    "lat": "42.0622",
    "lon": "-102.81",
    "name": "Alliance Municipal Airport",
    "state": "Nebraska",
    "woeid": "12518583"
  },
  {
    "city": "Wainwright",
    "code": "AIN",
    "country": "United States",
    "icao": "PAWT",
    "lat": "70.6139",
    "lon": "-159.857",
    "name": "Wainwright Airport",
    "state": "Alaska",
    "woeid": "12522307"
  },
  {
    "city": "Atka",
    "code": "AKB",
    "country": "United States",
    "icao": "",
    "lat": "52.2217",
    "lon": "-174.204",
    "name": "Atka Airport",
    "state": "Alaska",
    "woeid": "12518685"
  },
  {
    "city": "Bethel",
    "code": "AKI",
    "country": "United States",
    "icao": "",
    "lat": "60.8866",
    "lon": "-161.218",
    "name": "Akiak Airport",
    "state": "Alaska",
    "woeid": "12524554"
  },
  {
    "city": "Kodiak",
    "code": "AKK",
    "country": "United States",
    "icao": "PAKH",
    "lat": "56.95",
    "lon": "-154.167",
    "name": "Akhiok Airport",
    "state": "Alaska",
    "woeid": "12524555"
  },
  {
    "city": "King Salmon",
    "code": "AKN",
    "country": "United States",
    "icao": "PAKN",
    "lat": "58.6775",
    "lon": "-156.655",
    "name": "King Salmon Airport",
    "state": "Alaska",
    "woeid": "12520466"
  },
  {
    "city": "Anaktuvuk Pass",
    "code": "AKP",
    "country": "United States",
    "icao": "PAKP",
    "lat": "68.1916",
    "lon": "-151.79",
    "name": "Anaktuvuk Pass Airport",
    "state": "Alaska",
    "woeid": "12524556"
  },
  {
    "city": "Latham",
    "code": "ALB",
    "country": "United States",
    "icao": "KALB",
    "lat": "42.7426",
    "lon": "-73.809",
    "name": "Albany International Airport",
    "state": "New York",
    "woeid": "12518554"
  },
  {
    "city": "Alamogordo",
    "code": "ALM",
    "country": "United States",
    "icao": "KALM",
    "lat": "32.8407",
    "lon": "-105.994",
    "name": "Alamogordo White Sands Regional Airport",
    "state": "New Mexico",
    "woeid": "12518553"
  },
  {
    "city": "Waterloo",
    "code": "ALO",
    "country": "United States",
    "icao": "KALO",
    "lat": "42.5509",
    "lon": "-92.3951",
    "name": "Waterloo Municipal Airport",
    "state": "Iowa",
    "woeid": "12522347"
  },
  {
    "city": "Alamosa",
    "code": "ALS",
    "country": "United States",
    "icao": "KALS",
    "lat": "37.4444",
    "lon": "-105.865",
    "name": "San Luis Valley Regional Airport",
    "state": "Colorado",
    "woeid": "12521726"
  },
  {
    "city": "Walla Walla",
    "code": "ALW",
    "country": "United States",
    "icao": "KALW",
    "lat": "46.0879",
    "lon": "-118.283",
    "name": "Walla Walla Regional Airport",
    "state": "Washington",
    "woeid": "12522317"
  },
  {
    "city": "Alitak",
    "code": "ALZ",
    "country": "United States",
    "icao": "",
    "lat": "56.8988",
    "lon": "-154.246",
    "name": "Alitak Seaplane Base",
    "state": "Alaska",
    "woeid": "12524557"
  },
  {
    "city": "Amarillo",
    "code": "AMA",
    "country": "United States",
    "icao": "KAMA",
    "lat": "35.2177",
    "lon": "-101.706",
    "name": "Amarillo International Airport",
    "state": "Texas",
    "woeid": "12518598"
  },
  {
    "city": "Anchorage",
    "code": "ANC",
    "country": "United States",
    "icao": "PANC",
    "lat": "61.1767",
    "lon": "-149.961",
    "name": "Anchorage International Airport",
    "state": "Alaska",
    "woeid": "12518613"
  },
  {
    "city": "Bethel",
    "code": "ANI",
    "country": "United States",
    "icao": "PANI",
    "lat": "61.5742",
    "lon": "-159.535",
    "name": "Aniak Airport",
    "state": "Alaska",
    "woeid": "12524558"
  },
  {
    "city": "Anvik",
    "code": "ANV",
    "country": "United States",
    "icao": "PANV",
    "lat": "62.65",
    "lon": "-160.217",
    "name": "Anvik Airport",
    "state": "Alaska",
    "woeid": "12524559"
  },
  {
    "city": "Martinsburg",
    "code": "AOO",
    "country": "United States",
    "icao": "KAOO",
    "lat": "40.2952",
    "lon": "-78.324",
    "name": "Altoona-Blair County Airport",
    "state": "Pennsylvania",
    "woeid": "12518593"
  },
  {
    "city": "Amook",
    "code": "AOS",
    "country": "United States",
    "icao": "",
    "lat": "57.4672",
    "lon": "-153.839",
    "name": "Amook Bay Seaplane Base",
    "state": "Alaska",
    "woeid": "12524560"
  },
  {
    "city": "Englewood",
    "code": "APA",
    "country": "United States",
    "icao": "KAPA",
    "lat": "39.5752",
    "lon": "-104.845",
    "name": "Centennial Airport",
    "state": "Colorado",
    "woeid": "12519112"
  },
  {
    "city": "Naples",
    "code": "APF",
    "country": "United States",
    "icao": "KAPF",
    "lat": "26.1483",
    "lon": "-81.7745",
    "name": "Naples Municipal Airport",
    "state": "Florida",
    "woeid": "12521078"
  },
  {
    "city": "Alpena",
    "code": "APN",
    "country": "United States",
    "icao": "KAPN",
    "lat": "45.07",
    "lon": "-83.5683",
    "name": "Alpena County Regional Airport",
    "state": "Michigan",
    "woeid": "12518585"
  },
  {
    "city": "Arctic Village",
    "code": "ARC",
    "country": "United States",
    "icao": "PARC",
    "lat": "68.1167",
    "lon": "-145.583",
    "name": "Arctic Village Airport",
    "state": "Alaska",
    "woeid": "12524562"
  },
  {
    "city": "Dexter",
    "code": "ART",
    "country": "United States",
    "icao": "KART",
    "lat": "43.9942",
    "lon": "-76.0232",
    "name": "Watertown International Airport",
    "state": "New York",
    "woeid": "12522348"
  },
  {
    "city": "Woodruff",
    "code": "ARV",
    "country": "United States",
    "icao": "KARV",
    "lat": "45.9296",
    "lon": "-89.7371",
    "name": "Lakelan-Noble F. Lee Memerial Field Airport",
    "state": "Wisconsin",
    "woeid": "12521141"
  },
  {
    "city": "Aspen",
    "code": "ASE",
    "country": "United States",
    "icao": "KASE",
    "lat": "39.2197",
    "lon": "-106.864",
    "name": "Aspen Pitkin County Airport-Sardy Field",
    "state": "Colorado",
    "woeid": "12518679"
  },
  {
    "city": "Atqasuk",
    "code": "ATK",
    "country": "United States",
    "icao": "PATQ",
    "lat": "70.4639",
    "lon": "-157.331",
    "name": "Atqasuk Airport",
    "state": "Alaska",
    "woeid": "12524564"
  },
  {
    "city": "Atlanta",
    "code": "ATL",
    "country": "United States",
    "icao": "KATL",
    "lat": "33.6558",
    "lon": "-84.4333",
    "name": "Hartsfield-Jackson Atlanta International Airport",
    "state": "Georgia",
    "woeid": "12522118"
  },
  {
    "city": "Atmautluak",
    "code": "ATT",
    "country": "United States",
    "icao": "",
    "lat": "60.865",
    "lon": "-162.276",
    "name": "Atmautluak Airport",
    "state": "Alaska",
    "woeid": "12524566"
  },
  {
    "city": "Appleton",
    "code": "ATW",
    "country": "United States",
    "icao": "KATW",
    "lat": "44.2603",
    "lon": "-88.5111",
    "name": "Outagamie County Airport",
    "state": "Wisconsin",
    "woeid": "12521262"
  },
  {
    "city": "Watertown",
    "code": "ATY",
    "country": "United States",
    "icao": "KATY",
    "lat": "44.9216",
    "lon": "-97.1609",
    "name": "Watertown Municipal Airport",
    "state": "South Dakota",
    "woeid": "12522349"
  },
  {
    "city": "Augusta",
    "code": "AUG",
    "country": "United States",
    "icao": "KAUG",
    "lat": "44.3181",
    "lon": "-69.7933",
    "name": "Augusta State Airport",
    "state": "Maine",
    "woeid": "12518700"
  },
  {
    "city": "Alakanuk",
    "code": "AUK",
    "country": "United States",
    "icao": "",
    "lat": "62.6833",
    "lon": "-164.633",
    "name": "Alakanuk Airport",
    "state": "Alaska",
    "woeid": "12524567"
  },
  {
    "city": "Austin",
    "code": "AUS",
    "country": "United States",
    "icao": "KAUS",
    "lat": "30.2027",
    "lon": "-97.6653",
    "name": "Austin-Bergstrom International Airport",
    "state": "Texas",
    "woeid": "23418445"
  },
  {
    "city": "Fletcher",
    "code": "AVL",
    "country": "United States",
    "icao": "KAVL",
    "lat": "35.4349",
    "lon": "-82.5373",
    "name": "Asheville Regional Airport",
    "state": "North Carolina",
    "woeid": "12518672"
  },
  {
    "city": "Pittston",
    "code": "AVP",
    "country": "United States",
    "icao": "KAVP",
    "lat": "41.3354",
    "lon": "-75.7294",
    "name": "Wilkes Barre Scranton International Airport",
    "state": "Pennsylvania",
    "woeid": "12522441"
  },
  {
    "city": "Phoenix",
    "code": "AZA",
    "country": "United States",
    "icao": "KIWA",
    "lat": "33.3078",
    "lon": "-111.656",
    "name": "Phoenix-Mesa Gateway Airport",
    "state": "Arizona",
    "woeid": "2449808"
  },
  {
    "city": "Kalamazoo",
    "code": "AZO",
    "country": "United States",
    "icao": "KAZO",
    "lat": "42.2398",
    "lon": "-85.5563",
    "name": "Kalamazoo-Battle Creek International Airport",
    "state": "Michigan",
    "woeid": "12520414"
  },
  {
    "city": "Windsor Locks",
    "code": "BDL",
    "country": "United States",
    "icao": "KBDL",
    "lat": "41.9271",
    "lon": "-72.6816",
    "name": "Bradley International Airport",
    "state": "Connecticut",
    "woeid": "12518915"
  },
  {
    "city": "Stratford",
    "code": "BDR",
    "country": "United States",
    "icao": "KBDR",
    "lat": "41.1636",
    "lon": "-73.1283",
    "name": "Igor I Sikorsky Memorial Airport",
    "state": "Connecticut",
    "woeid": "12520279"
  },
  {
    "city": "Bethel",
    "code": "BET",
    "country": "United States",
    "icao": "PABE",
    "lat": "60.7788",
    "lon": "-161.847",
    "name": "Bethel Airport",
    "state": "Alaska",
    "woeid": "12518815"
  },
  {
    "city": "Lewis Run",
    "code": "BFD",
    "country": "United States",
    "icao": "KBFD",
    "lat": "41.7964",
    "lon": "-78.6407",
    "name": "Bradford Regional Airport",
    "state": "Pennsylvania",
    "woeid": "12518914"
  },
  {
    "city": "Scottsbluff",
    "code": "BFF",
    "country": "United States",
    "icao": "KBFF",
    "lat": "41.8683",
    "lon": "-103.597",
    "name": "William B Heilig Field Airport",
    "state": "Nebraska",
    "woeid": "12522448"
  },
  {
    "city": "Seattle",
    "code": "BFI",
    "country": "United States",
    "icao": "KBFI",
    "lat": "47.5369",
    "lon": "-122.304",
    "name": "King County International Airport-Boeing Field",
    "state": "Washington",
    "woeid": "12518877"
  },
  {
    "city": "Bakersfield",
    "code": "BFL",
    "country": "United States",
    "icao": "KBFL",
    "lat": "35.4288",
    "lon": "-119.044",
    "name": "Kern County-Meadows Field Airport",
    "state": "California",
    "woeid": "12520881"
  },
  {
    "city": "Johnson City",
    "code": "BGM",
    "country": "United States",
    "icao": "KBGM",
    "lat": "42.2082",
    "lon": "-75.9825",
    "name": "Greater Binghamton Edwin A Link Field Airport",
    "state": "New York",
    "woeid": "12519598"
  },
  {
    "city": "Bangor",
    "code": "BGR",
    "country": "United States",
    "icao": "KBGR",
    "lat": "44.8086",
    "lon": "-68.8167",
    "name": "Bangor International Airport",
    "state": "Maine",
    "woeid": "12518734"
  },
  {
    "city": "Ellsworth",
    "code": "BHB",
    "country": "United States",
    "icao": "KBHB",
    "lat": "44.4461",
    "lon": "-68.3615",
    "name": "Hancock County-Bar Harbor Airport",
    "state": "Maine",
    "woeid": "12520074"
  },
  {
    "city": "Birmingham",
    "code": "BHM",
    "country": "United States",
    "icao": "KBHM",
    "lat": "33.5604",
    "lon": "-86.7492",
    "name": "Birmingham International Airport",
    "state": "Alabama",
    "woeid": "12518836"
  },
  {
    "city": "Block Island",
    "code": "BID",
    "country": "United States",
    "icao": "KBID",
    "lat": "41.1696",
    "lon": "-71.58",
    "name": "Block Island State Airport",
    "state": "Rhode Island",
    "woeid": "12524577"
  },
  {
    "city": "Billings",
    "code": "BIL",
    "country": "United States",
    "icao": "KBIL",
    "lat": "45.8034",
    "lon": "-108.537",
    "name": "Logan International Airport",
    "state": "Montana",
    "woeid": "12520688"
  },
  {
    "city": "Bismarck",
    "code": "BIS",
    "country": "United States",
    "icao": "KBIS",
    "lat": "46.7745",
    "lon": "-100.757",
    "name": "Bismarck Municipal Airport",
    "state": "North Dakota",
    "woeid": "12518843"
  },
  {
    "city": "Bemidji",
    "code": "BJI",
    "country": "United States",
    "icao": "KBJI",
    "lat": "47.5065",
    "lon": "-94.9338",
    "name": "Bemidji-Beltrami County Airport",
    "state": "Minnesota",
    "woeid": "12518794"
  },
  {
    "city": "Buckland",
    "code": "BKC",
    "country": "United States",
    "icao": "",
    "lat": "65.9833",
    "lon": "-161.167",
    "name": "Buckland Airport",
    "state": "Alaska",
    "woeid": "12524578"
  },
  {
    "city": "Cleveland",
    "code": "BKL",
    "country": "United States",
    "icao": "KBKL",
    "lat": "41.5115",
    "lon": "-81.6869",
    "name": "Burke Lakefront Airport",
    "state": "Ohio",
    "woeid": "12518976"
  },
  {
    "city": "Beaver",
    "code": "BKW",
    "country": "United States",
    "icao": "KBKW",
    "lat": "37.7849",
    "lon": "-81.1174",
    "name": "Raleigh County Memorial Airport",
    "state": "West Virginia",
    "woeid": "12521519"
  },
  {
    "city": "Bellingham",
    "code": "BLI",
    "country": "United States",
    "icao": "KBLI",
    "lat": "48.7955",
    "lon": "-122.532",
    "name": "Bellingham International Airport",
    "state": "Washington",
    "woeid": "12518790"
  },
  {
    "city": "Belleville",
    "code": "BLV",
    "country": "United States",
    "icao": "KBLV",
    "lat": "38.5412",
    "lon": "-89.8499",
    "name": "Belleville",
    "state": "Illinois",
    "woeid": "12521774"
  },
  {
    "city": "Bloomington",
    "code": "BMI",
    "country": "United States",
    "icao": "KBMI",
    "lat": "40.4841",
    "lon": "-88.9134",
    "name": "Bloomington Normal Airport",
    "state": "Illinois",
    "woeid": "12518861"
  },
  {
    "city": "Nashville",
    "code": "BNA",
    "country": "United States",
    "icao": "KBNA",
    "lat": "36.1342",
    "lon": "-86.6682",
    "name": "Nashville International Airport",
    "state": "Tennessee",
    "woeid": "12521083"
  },
  {
    "city": "Boise",
    "code": "BOI",
    "country": "United States",
    "icao": "KBOI",
    "lat": "43.5709",
    "lon": "-116.222",
    "name": "Boise Air Terminal",
    "state": "Idaho",
    "woeid": "12518880"
  },
  {
    "city": "Boston",
    "code": "BOS",
    "country": "United States",
    "icao": "KBOS",
    "lat": "42.3717",
    "lon": "-71.0281",
    "name": "Gen E L Logan International Airport",
    "state": "Massachusetts",
    "woeid": "12519874"
  },
  {
    "city": "Bartow",
    "code": "BOW",
    "country": "United States",
    "icao": "KBOW",
    "lat": "27.9493",
    "lon": "-81.7818",
    "name": "Bartow Municipal Airport",
    "state": "Florida",
    "woeid": "12518749"
  },
  {
    "city": "Beaumont",
    "code": "BPT",
    "country": "United States",
    "icao": "KBPT",
    "lat": "29.9551",
    "lon": "-94.0185",
    "name": "Jefferson County Airport",
    "state": "Texas",
    "woeid": "12520357"
  },
  {
    "city": "Brunswick",
    "code": "BQK",
    "country": "United States",
    "icao": "KBQK",
    "lat": "31.2525",
    "lon": "-81.4703",
    "name": "Glynco Jetport Airport",
    "state": "Georgia",
    "woeid": "12519920"
  },
  {
    "city": "Aguadilla",
    "code": "BQN",
    "country": "United States",
    "icao": "TJBQ",
    "lat": "18.496",
    "lon": "-67.1357",
    "name": "Rafael Hernandez Airport",
    "state": "Puerto Rico",
    "woeid": "12515664"
  },
  {
    "city": "Brainerd",
    "code": "BRD",
    "country": "United States",
    "icao": "KBRD",
    "lat": "46.3909",
    "lon": "-94.1413",
    "name": "Brainerd-Crow Wing County Regional Airport",
    "state": "Minnesota",
    "woeid": "12518917"
  },
  {
    "city": "Burlington",
    "code": "BRL",
    "country": "United States",
    "icao": "KBRL",
    "lat": "40.7816",
    "lon": "-91.1197",
    "name": "Burlington Municipal Airport",
    "state": "Iowa",
    "woeid": "12518980"
  },
  {
    "city": "Brownsville",
    "code": "BRO",
    "country": "United States",
    "icao": "KBRO",
    "lat": "25.9064",
    "lon": "-97.4321",
    "name": "Brownsville-South Padre Island International Air",
    "state": "Texas",
    "woeid": "12518951"
  },
  {
    "city": "Barrow",
    "code": "BRW",
    "country": "United States",
    "icao": "PABR",
    "lat": "71.2892",
    "lon": "-156.772",
    "name": "Wiley Post Will Rogers Memorial Airport",
    "state": "Alaska",
    "woeid": "12522440"
  },
  {
    "city": "Kaktovik",
    "code": "BTI",
    "country": "United States",
    "icao": "PABA",
    "lat": "70.1478",
    "lon": "-143.579",
    "name": "Barter Island Airport",
    "state": "Alaska",
    "woeid": "12524590"
  },
  {
    "city": "Battle Creek",
    "code": "BTL",
    "country": "United States",
    "icao": "KBTL",
    "lat": "42.3046",
    "lon": "-85.2448",
    "name": "W K Kellogg Airport",
    "state": "Michigan",
    "woeid": "12522297"
  },
  {
    "city": "Butte",
    "code": "BTM",
    "country": "United States",
    "icao": "KBTM",
    "lat": "45.9544",
    "lon": "-112.503",
    "name": "Bert Mooney Airport",
    "state": "Montana",
    "woeid": "12518811"
  },
  {
    "city": "Baton Rouge",
    "code": "BTR",
    "country": "United States",
    "icao": "KBTR",
    "lat": "30.533",
    "lon": "-91.1567",
    "name": "Baton Rouge Metropolitan Airport",
    "state": "Louisiana",
    "woeid": "12518754"
  },
  {
    "city": "Bettles",
    "code": "BTT",
    "country": "United States",
    "icao": "PABT",
    "lat": "66.9134",
    "lon": "-151.551",
    "name": "Bettles Airport",
    "state": "Alaska",
    "woeid": "12524591"
  },
  {
    "city": "South Burlington",
    "code": "BTV",
    "country": "United States",
    "icao": "KBTV",
    "lat": "44.4688",
    "lon": "-73.1552",
    "name": "Burlington International Airport",
    "state": "Vermont",
    "woeid": "12518979"
  },
  {
    "city": "Buffalo",
    "code": "BUF",
    "country": "United States",
    "icao": "KBUF",
    "lat": "42.9309",
    "lon": "-78.738",
    "name": "Greater Buffalo International Airport",
    "state": "New York",
    "woeid": "12519977"
  },
  {
    "city": "Burbank",
    "code": "BUR",
    "country": "United States",
    "icao": "KBUR",
    "lat": "34.1963",
    "lon": "-118.352",
    "name": "Burbank Glendale Pasadena Airport",
    "state": "California",
    "woeid": "12518974"
  },
  {
    "city": "Baltimore",
    "code": "BWI",
    "country": "United States",
    "icao": "KBWI",
    "lat": "39.1841",
    "lon": "-76.6745",
    "name": "Baltimore-Washington International Thurgood Mars",
    "state": "Maryland",
    "woeid": "12522341"
  },
  {
    "city": "Bozeman",
    "code": "BZN",
    "country": "United States",
    "icao": "KBZN",
    "lat": "45.7722",
    "lon": "-111.157",
    "name": "Gallatin Field Airport",
    "state": "Montana",
    "woeid": "12519854"
  },
  {
    "city": "West Columbia",
    "code": "CAE",
    "country": "United States",
    "icao": "KCAE",
    "lat": "33.9468",
    "lon": "-81.1241",
    "name": "Columbia Metropolitan Airport",
    "state": "South Carolina",
    "woeid": "12519284"
  },
  {
    "city": "Canton",
    "code": "CAK",
    "country": "United States",
    "icao": "KCAK",
    "lat": "40.9149",
    "lon": "-81.4309",
    "name": "Akron Canton Regional Airport",
    "state": "Ohio",
    "woeid": "12518548"
  },
  {
    "city": "Cold Bay",
    "code": "CDB",
    "country": "United States",
    "icao": "PACD",
    "lat": "55.2005",
    "lon": "-162.705",
    "name": "Cold Bay Airport",
    "state": "Alaska",
    "woeid": "12519269"
  },
  {
    "city": "Cedar City",
    "code": "CDC",
    "country": "United States",
    "icao": "KCDC",
    "lat": "37.6992",
    "lon": "-113.092",
    "name": "Cedar City Municipal Airport",
    "state": "Utah",
    "woeid": "12519109"
  },
  {
    "city": "Chadron",
    "code": "CDR",
    "country": "United States",
    "icao": "KCDR",
    "lat": "42.8284",
    "lon": "-103.094",
    "name": "Chadron Municipal Airport",
    "state": "Nebraska",
    "woeid": "12519125"
  },
  {
    "city": "Cordova",
    "code": "CDV",
    "country": "United States",
    "icao": "PACV",
    "lat": "60.4924",
    "lon": "-145.475",
    "name": "Merle K Mudhole Smith Airport",
    "state": "Alaska",
    "woeid": "12520907"
  },
  {
    "city": "Fairfield",
    "code": "CDW",
    "country": "United States",
    "icao": "KCDW",
    "lat": "40.8759",
    "lon": "-74.2775",
    "name": "Essex County Airport",
    "state": "New Jersey",
    "woeid": "12519660"
  },
  {
    "city": "Crescent City",
    "code": "CEC",
    "country": "United States",
    "icao": "KCEC",
    "lat": "41.7765",
    "lon": "-124.237",
    "name": "Jack Mcnamara Field Airport",
    "state": "California",
    "woeid": "12520324"
  },
  {
    "city": "Circle",
    "code": "CEM",
    "country": "United States",
    "icao": "",
    "lat": "65.6121",
    "lon": "-144.674",
    "name": "Central Airport",
    "state": "Alaska",
    "woeid": "12524607"
  },
  {
    "city": "Cortez",
    "code": "CEZ",
    "country": "United States",
    "icao": "KCEZ",
    "lat": "37.3044",
    "lon": "-108.63",
    "name": "Cortez-Montezuma County Airport",
    "state": "Colorado",
    "woeid": "12519328"
  },
  {
    "city": "Craig",
    "code": "CGA",
    "country": "United States",
    "icao": "",
    "lat": "55.4592",
    "lon": "-133.106",
    "name": "Craig Seaplane Base",
    "state": "Alaska",
    "woeid": "12524610"
  },
  {
    "city": "Scott City",
    "code": "CGI",
    "country": "United States",
    "icao": "KCGI",
    "lat": "37.2272",
    "lon": "-89.5637",
    "name": "Cape Girardeau Municipal Airport",
    "state": "Missouri",
    "woeid": "12519053"
  },
  {
    "city": "Chattanooga",
    "code": "CHA",
    "country": "United States",
    "icao": "KCHA",
    "lat": "35.0373",
    "lon": "-85.1966",
    "name": "Chattanooga Metropolitan Airport",
    "state": "Tennessee",
    "woeid": "12520716"
  },
  {
    "city": "Earlysville",
    "code": "CHO",
    "country": "United States",
    "icao": "KCHO",
    "lat": "38.14",
    "lon": "-78.4487",
    "name": "Charlottesville Albemarle Airport",
    "state": "Virginia",
    "woeid": "12519149"
  },
  {
    "city": "North Charleston",
    "code": "CHS",
    "country": "United States",
    "icao": "KCHS",
    "lat": "32.8838",
    "lon": "-80.0356",
    "name": "Charleston International Airport",
    "state": "South Carolina",
    "woeid": "12519142"
  },
  {
    "city": "Chuathbaluk",
    "code": "CHU",
    "country": "United States",
    "icao": "KCHU",
    "lat": "61.5769",
    "lon": "-159.244",
    "name": "Chuathbaluk",
    "state": "Alaska",
    "woeid": "2380180"
  },
  {
    "city": "Chico",
    "code": "CIC",
    "country": "United States",
    "icao": "KCIC",
    "lat": "39.7987",
    "lon": "-121.854",
    "name": "Chico Municipal Airport",
    "state": "California",
    "woeid": "12519180"
  },
  {
    "city": "Cedar Rapids",
    "code": "CID",
    "country": "United States",
    "icao": "KCID",
    "lat": "41.8893",
    "lon": "-91.7008",
    "name": "Cedar Rapids Municipal Airport",
    "state": "Iowa",
    "woeid": "12519110"
  },
  {
    "city": "Chalkyitsik",
    "code": "CIK",
    "country": "United States",
    "icao": "",
    "lat": "66.65",
    "lon": "-143.75",
    "name": "Chalkyitsik Airport",
    "state": "Alaska",
    "woeid": "12524613"
  },
  {
    "city": "Kincheloe",
    "code": "CIU",
    "country": "United States",
    "icao": "KCIU",
    "lat": "46.2581",
    "lon": "-84.4739",
    "name": "Chippewa County International Airport",
    "state": "Michigan",
    "woeid": "12519187"
  },
  {
    "city": "Clarksburg",
    "code": "CKB",
    "country": "United States",
    "icao": "KCKB",
    "lat": "39.2967",
    "lon": "-80.2314",
    "name": "Benedum Airport",
    "state": "West Virginia",
    "woeid": "12518797"
  },
  {
    "city": "Aniak",
    "code": "CKD",
    "country": "United States",
    "icao": "",
    "lat": "61.8667",
    "lon": "-158.133",
    "name": "Crooked Creek Airport",
    "state": "Alaska",
    "woeid": "12524616"
  },
  {
    "city": "Tok",
    "code": "CKX",
    "country": "United States",
    "icao": "",
    "lat": "64.0833",
    "lon": "-141.917",
    "name": "Chicken Airport",
    "state": "Alaska",
    "woeid": "12524619"
  },
  {
    "city": "Carlsbad",
    "code": "CLD",
    "country": "United States",
    "icao": "KCRQ",
    "lat": "33.1255",
    "lon": "-117.275",
    "name": "Mcclellan Palomar Airport",
    "state": "California",
    "woeid": "12520851"
  },
  {
    "city": "Cleveland",
    "code": "CLE",
    "country": "United States",
    "icao": "KCLE",
    "lat": "41.4115",
    "lon": "-81.8339",
    "name": "Hopkins International Airport",
    "state": "Ohio",
    "woeid": "12520226"
  },
  {
    "city": "College Station",
    "code": "CLL",
    "country": "United States",
    "icao": "KCLL",
    "lat": "30.5938",
    "lon": "-96.3685",
    "name": "Easterwood Field Airport",
    "state": "Texas",
    "woeid": "12519579"
  },
  {
    "city": "Port Angeles",
    "code": "CLM",
    "country": "United States",
    "icao": "KCLM",
    "lat": "48.1155",
    "lon": "-123.491",
    "name": "William R Fairchild International Airport",
    "state": "Washington",
    "woeid": "12522452"
  },
  {
    "city": "Clarks Point",
    "code": "CLP",
    "country": "United States",
    "icao": "",
    "lat": "58.8517",
    "lon": "-158.51",
    "name": "Clarks Point Airport",
    "state": "Alaska",
    "woeid": "12524621"
  },
  {
    "city": "Charlotte",
    "code": "CLT",
    "country": "United States",
    "icao": "KCLT",
    "lat": "35.2226",
    "lon": "-80.946",
    "name": "Douglas International Airport",
    "state": "North Carolina",
    "woeid": "12519519"
  },
  {
    "city": "Columbus",
    "code": "CMH",
    "country": "United States",
    "icao": "KCMH",
    "lat": "39.9974",
    "lon": "-82.8877",
    "name": "Port Columbus International Airport",
    "state": "Ohio",
    "woeid": "12521441"
  },
  {
    "city": "Savoy",
    "code": "CMI",
    "country": "United States",
    "icao": "KCMI",
    "lat": "40.0367",
    "lon": "-88.2638",
    "name": "University of Illinois-Willard Airport",
    "state": "Illinois",
    "woeid": "12522247"
  },
  {
    "city": "Hancock",
    "code": "CMX",
    "country": "United States",
    "icao": "KCMX",
    "lat": "47.1689",
    "lon": "-88.4942",
    "name": "Houghton County Memorial Airport",
    "state": "Michigan",
    "woeid": "12520236"
  },
  {
    "city": "Carlsbad",
    "code": "CNM",
    "country": "United States",
    "icao": "KCNM",
    "lat": "32.3458",
    "lon": "-104.251",
    "name": "Cavern City Air Terminal Airport",
    "state": "New Mexico",
    "woeid": "12519107"
  },
  {
    "city": "Thompson",
    "code": "CNY",
    "country": "United States",
    "icao": "KCNY",
    "lat": "38.7609",
    "lon": "-109.742",
    "name": "Canyonlands Field Airport",
    "state": "Utah",
    "woeid": "12519050"
  },
  {
    "city": "Cody/Yellowstone",
    "code": "COD",
    "country": "United States",
    "icao": "KCOD",
    "lat": "44.5134",
    "lon": "-109.031",
    "name": "Yellowstone Regional Airport",
    "state": "Wyoming",
    "woeid": "12522532"
  },
  {
    "city": "Colorado Springs",
    "code": "COS",
    "country": "United States",
    "icao": "KCOS",
    "lat": "38.7829",
    "lon": "-104.697",
    "name": "City of Colorado Springs Municipal Airport",
    "state": "Colorado",
    "woeid": "12519208"
  },
  {
    "city": "Columbia",
    "code": "COU",
    "country": "United States",
    "icao": "KCOU",
    "lat": "38.8174",
    "lon": "-92.2218",
    "name": "Columbia Regional Airport",
    "state": "Missouri",
    "woeid": "12519286"
  },
  {
    "city": "Casper",
    "code": "CPR",
    "country": "United States",
    "icao": "KCPR",
    "lat": "42.8966",
    "lon": "-106.465",
    "name": "Natrona County International Airport",
    "state": "Wyoming",
    "woeid": "12521085"
  },
  {
    "city": "Culebra",
    "code": "CPX",
    "country": "United States",
    "icao": "TJCP",
    "lat": "18.3204",
    "lon": "-65.2929",
    "name": "Culebra Airport",
    "state": "Puerto Rico",
    "woeid": "12515657"
  },
  {
    "city": "Corpus Christi",
    "code": "CRP",
    "country": "United States",
    "icao": "KCRP",
    "lat": "27.7747",
    "lon": "-97.5019",
    "name": "Corpus Christi International Airport",
    "state": "Texas",
    "woeid": "12519324"
  },
  {
    "city": "Charleston",
    "code": "CRW",
    "country": "United States",
    "icao": "KCRW",
    "lat": "38.3697",
    "lon": "-81.5951",
    "name": "Yeager Airport",
    "state": "West Virginia",
    "woeid": "12522530"
  },
  {
    "city": "Columbus",
    "code": "CSG",
    "country": "United States",
    "icao": "KCSG",
    "lat": "32.5184",
    "lon": "-84.9401",
    "name": "Columbus Metropolitan Airport",
    "state": "Georgia",
    "woeid": "23418432"
  },
  {
    "city": "Hebron",
    "code": "CVG",
    "country": "United States",
    "icao": "KCVG",
    "lat": "39.0571",
    "lon": "-84.6625",
    "name": "Greater Cincinnati International Airport",
    "state": "Ohio",
    "woeid": "12519978"
  },
  {
    "city": "Texico",
    "code": "CVN",
    "country": "United States",
    "icao": "KCVN",
    "lat": "34.4271",
    "lon": "-103.087",
    "name": "Clovis Municipal Airport",
    "state": "New Mexico",
    "woeid": "12519252"
  },
  {
    "city": "Mosinee",
    "code": "CWA",
    "country": "United States",
    "icao": "KCWA",
    "lat": "44.7846",
    "lon": "-89.6704",
    "name": "Central Wisconsin Airport",
    "state": "Wisconsin",
    "woeid": "12519120"
  },
  {
    "city": "Chefornak",
    "code": "CYF",
    "country": "United States",
    "icao": "",
    "lat": "60.1558",
    "lon": "-164.273",
    "name": "Chefornak Airport",
    "state": "Alaska",
    "woeid": "12524634"
  },
  {
    "city": "Cheyenne",
    "code": "CYS",
    "country": "United States",
    "icao": "KCYS",
    "lat": "41.1527",
    "lon": "-104.819",
    "name": "Cheyenne Airport",
    "state": "Wyoming",
    "woeid": "12519176"
  },
  {
    "city": "Gakona",
    "code": "CZN",
    "country": "United States",
    "icao": "",
    "lat": "62.0833",
    "lon": "-142.05",
    "name": "Chisana Airport",
    "state": "Alaska",
    "woeid": "12524639"
  },
  {
    "city": "Daytona Beach",
    "code": "DAB",
    "country": "United States",
    "icao": "KDAB",
    "lat": "29.1874",
    "lon": "-81.0615",
    "name": "Daytona Beach International Airport",
    "state": "Florida",
    "woeid": "12519432"
  },
  {
    "city": "Dallas",
    "code": "DAL",
    "country": "United States",
    "icao": "KDAL",
    "lat": "32.8439",
    "lon": "-96.8496",
    "name": "Dallas Love Field Airport",
    "state": "Texas",
    "woeid": "12519401"
  },
  {
    "city": "Dayton",
    "code": "DAY",
    "country": "United States",
    "icao": "KDAY",
    "lat": "39.8968",
    "lon": "-84.2207",
    "name": "James M Cox Dayton International Airport",
    "state": "Ohio",
    "woeid": "12520347"
  },
  {
    "city": "Dubuque",
    "code": "DBQ",
    "country": "United States",
    "icao": "KDBQ",
    "lat": "42.4047",
    "lon": "-90.7037",
    "name": "Dubuque Regional Airport",
    "state": "Iowa",
    "woeid": "12519540"
  },
  {
    "city": "Arlington",
    "code": "DCA",
    "country": "United States",
    "icao": "KDCA",
    "lat": "38.849",
    "lon": "-77.0438",
    "name": "Washington National Airport",
    "state": "Virginia",
    "woeid": "12522343"
  },
  {
    "city": "Dodge City",
    "code": "DDC",
    "country": "United States",
    "icao": "KDDC",
    "lat": "37.7573",
    "lon": "-99.9697",
    "name": "Dodge City Regional Airport",
    "state": "Kansas",
    "woeid": "12519504"
  },
  {
    "city": "Decatur",
    "code": "DEC",
    "country": "United States",
    "icao": "KDEC",
    "lat": "39.8335",
    "lon": "-88.8773",
    "name": "Decatur Airport",
    "state": "Illinois",
    "woeid": "12519441"
  },
  {
    "city": "Denver",
    "code": "DEN",
    "country": "United States",
    "icao": "KDEN",
    "lat": "39.8396",
    "lon": "-104.672",
    "name": "Denver International Airport",
    "state": "Colorado",
    "woeid": "12523052"
  },
  {
    "city": "Dallas",
    "code": "DFW",
    "country": "United States",
    "icao": "KDFW",
    "lat": "32.9222",
    "lon": "-97.0409",
    "name": "Fort Worth International Airport",
    "state": "Texas",
    "woeid": "12519786"
  },
  {
    "city": "Dothan",
    "code": "DHN",
    "country": "United States",
    "icao": "KDHN",
    "lat": "31.3144",
    "lon": "-85.4487",
    "name": "Dothan Airport",
    "state": "Alabama",
    "woeid": "12519514"
  },
  {
    "city": "Dickinson",
    "code": "DIK",
    "country": "United States",
    "icao": "KDIK",
    "lat": "46.8035",
    "lon": "-102.802",
    "name": "Dickinson Municipal Airport",
    "state": "North Dakota",
    "woeid": "12519490"
  },
  {
    "city": "Dillingham",
    "code": "DLG",
    "country": "United States",
    "icao": "PADL",
    "lat": "59.0445",
    "lon": "-158.513",
    "name": "Dillingham Municipal Airport",
    "state": "Alaska",
    "woeid": "12519494"
  },
  {
    "city": "Duluth",
    "code": "DLH",
    "country": "United States",
    "icao": "KDLH",
    "lat": "46.838",
    "lon": "-92.1781",
    "name": "Duluth International Airport",
    "state": "Minnesota",
    "woeid": "12519545"
  },
  {
    "city": "Deering",
    "code": "DRG",
    "country": "United States",
    "icao": "",
    "lat": "66.0833",
    "lon": "-162.767",
    "name": "Deering Airport",
    "state": "Alaska",
    "woeid": "12524659"
  },
  {
    "city": "Durango",
    "code": "DRO",
    "country": "United States",
    "icao": "KDRO",
    "lat": "37.1595",
    "lon": "-107.751",
    "name": "Durango la Plata County Airport",
    "state": "Colorado",
    "woeid": "12519550"
  },
  {
    "city": "Del Rio",
    "code": "DRT",
    "country": "United States",
    "icao": "KDRT",
    "lat": "29.3702",
    "lon": "-100.918",
    "name": "Del Rio International Airport",
    "state": "Texas",
    "woeid": "12519452"
  },
  {
    "city": "Des Moines",
    "code": "DSM",
    "country": "United States",
    "icao": "KDSM",
    "lat": "41.5328",
    "lon": "-93.6481",
    "name": "Des Moines International Airport",
    "state": "Iowa",
    "woeid": "12519473"
  },
  {
    "city": "Detroit",
    "code": "DTW",
    "country": "United States",
    "icao": "KDTW",
    "lat": "42.2327",
    "lon": "-83.3412",
    "name": "Detroit Metropolitan Wayne County Airport",
    "state": "Michigan",
    "woeid": "12519481"
  },
  {
    "city": "Reynoldsville",
    "code": "DUJ",
    "country": "United States",
    "icao": "KDUJ",
    "lat": "41.1833",
    "lon": "-78.8953",
    "name": "Du Bois Jefferson County Airport",
    "state": "Pennsylvania",
    "woeid": "12519536"
  },
  {
    "city": "Unalaska",
    "code": "DUT",
    "country": "United States",
    "icao": "PADU",
    "lat": "53.896",
    "lon": "-166.535",
    "name": "Unalaska Airport",
    "state": "Alaska",
    "woeid": "12522244"
  },
  {
    "city": "Devils Lake",
    "code": "DVL",
    "country": "United States",
    "icao": "KDVL",
    "lat": "48.108",
    "lon": "-98.9037",
    "name": "Devils Lake Municipal Airport",
    "state": "North Dakota",
    "woeid": "12519482"
  },
  {
    "city": "Tok",
    "code": "EAA",
    "country": "United States",
    "icao": "PAEA",
    "lat": "64.7667",
    "lon": "-141.15",
    "name": "Eagle Airport",
    "state": "Alaska",
    "woeid": "12524661"
  },
  {
    "city": "Kearney",
    "code": "EAR",
    "country": "United States",
    "icao": "KEAR",
    "lat": "40.7236",
    "lon": "-99.0151",
    "name": "Kearney Municipal Airport",
    "state": "Nebraska",
    "woeid": "12520429"
  },
  {
    "city": "East Wenatchee",
    "code": "EAT",
    "country": "United States",
    "icao": "KEAT",
    "lat": "47.4048",
    "lon": "-120.21",
    "name": "Pangborn Memorial Airport",
    "state": "Washington",
    "woeid": "12521295"
  },
  {
    "city": "Eau Claire",
    "code": "EAU",
    "country": "United States",
    "icao": "KEAU",
    "lat": "44.8625",
    "lon": "-91.4826",
    "name": "Eau Claire County Airport",
    "state": "Wisconsin",
    "woeid": "12519585"
  },
  {
    "city": "Ketchikan",
    "code": "EDA",
    "country": "United States",
    "icao": "",
    "lat": "55.9503",
    "lon": "-133.656",
    "name": "Edna Bay Seaplane Base",
    "state": "Alaska",
    "woeid": "12524642"
  },
  {
    "city": "Eek",
    "code": "EEK",
    "country": "United States",
    "icao": "",
    "lat": "60.2167",
    "lon": "-162.017",
    "name": "Eek Airport",
    "state": "Alaska",
    "woeid": "12524663"
  },
  {
    "city": "Gypsum",
    "code": "EGE",
    "country": "United States",
    "icao": "KEGE",
    "lat": "39.6395",
    "lon": "-106.912",
    "name": "Eagle County Regional Airport",
    "state": "Colorado",
    "woeid": "12519558"
  },
  {
    "city": "Eagle River",
    "code": "EGV",
    "country": "United States",
    "icao": "KEGV",
    "lat": "45.932",
    "lon": "-89.2599",
    "name": "Eagle River Union Airport",
    "state": "Wisconsin",
    "woeid": "12519564"
  },
  {
    "city": "Egegik",
    "code": "EGX",
    "country": "United States",
    "icao": "PAII",
    "lat": "58.2101",
    "lon": "-157.366",
    "name": "Egegik Airport",
    "state": "Alaska",
    "woeid": "12524588"
  },
  {
    "city": "Elko",
    "code": "EKO",
    "country": "United States",
    "icao": "KEKO",
    "lat": "40.829",
    "lon": "-115.78",
    "name": "Elko Municipal Airport-J C Harris Field",
    "state": "Nevada",
    "woeid": "12519626"
  },
  {
    "city": "Elim",
    "code": "ELI",
    "country": "United States",
    "icao": "",
    "lat": "64.6167",
    "lon": "-162.267",
    "name": "Elim Airport",
    "state": "Alaska",
    "woeid": "12524667"
  },
  {
    "city": "Horseheads",
    "code": "ELM",
    "country": "United States",
    "icao": "KELM",
    "lat": "42.1633",
    "lon": "-76.8973",
    "name": "Elmira Corning Regional Airport",
    "state": "New York",
    "woeid": "12519635"
  },
  {
    "city": "El Paso",
    "code": "ELP",
    "country": "United States",
    "icao": "KELP",
    "lat": "31.7982",
    "lon": "-106.393",
    "name": "El Paso International Airport",
    "state": "Texas",
    "woeid": "12519608"
  },
  {
    "city": "Elfin Cove",
    "code": "ELV",
    "country": "United States",
    "icao": "",
    "lat": "58.1833",
    "lon": "-136.317",
    "name": "Elfin Cove Airport",
    "state": "Alaska",
    "woeid": "12524668"
  },
  {
    "city": "Ely",
    "code": "ELY",
    "country": "United States",
    "icao": "KELY",
    "lat": "39.3043",
    "lon": "-114.853",
    "name": "Yelland Field Airport",
    "state": "Nevada",
    "woeid": "12519640"
  },
  {
    "city": "Alakanuk",
    "code": "EMK",
    "country": "United States",
    "icao": "",
    "lat": "62.785",
    "lon": "-164.491",
    "name": "Emmonak Airport",
    "state": "Alaska",
    "woeid": "12519644"
  },
  {
    "city": "Kenai",
    "code": "ENA",
    "country": "United States",
    "icao": "PAEN",
    "lat": "60.5651",
    "lon": "-151.244",
    "name": "Kenai Municipal Airport",
    "state": "Alaska",
    "woeid": "12520437"
  },
  {
    "city": "Kenosha",
    "code": "ENW",
    "country": "United States",
    "icao": "KENW",
    "lat": "42.5934",
    "lon": "-87.9299",
    "name": "Kenosha Regional Airport",
    "state": "Wisconsin",
    "woeid": "12520443"
  },
  {
    "city": "Erie",
    "code": "ERI",
    "country": "United States",
    "icao": "KERI",
    "lat": "42.0829",
    "lon": "-80.1824",
    "name": "Erie International Airport",
    "state": "Pennsylvania",
    "woeid": "12519655"
  },
  {
    "city": "Escanaba",
    "code": "ESC",
    "country": "United States",
    "icao": "KESC",
    "lat": "45.718",
    "lon": "-87.0942",
    "name": "Delta County Airport",
    "state": "Michigan",
    "woeid": "12519461"
  },
  {
    "city": "Eastsound",
    "code": "ESD",
    "country": "United States",
    "icao": "KORS",
    "lat": "48.7073",
    "lon": "-122.909",
    "name": "Orcas Island Airport",
    "state": "Washington",
    "woeid": "12523452"
  },
  {
    "city": "Eugene",
    "code": "EUG",
    "country": "United States",
    "icao": "KEUG",
    "lat": "44.1184",
    "lon": "-123.213",
    "name": "Mahlon Sweet Field Airport",
    "state": "Oregon",
    "woeid": "12520758"
  },
  {
    "city": "Evansville",
    "code": "EVV",
    "country": "United States",
    "icao": "KEVV",
    "lat": "38.0464",
    "lon": "-87.5308",
    "name": "Evansville Regional Airport",
    "state": "Indiana",
    "woeid": "12519675"
  },
  {
    "city": "New Bedford",
    "code": "EWB",
    "country": "United States",
    "icao": "KEWB",
    "lat": "41.6735",
    "lon": "-70.9579",
    "name": "New Bedford Municipal Airport",
    "state": "Massachusetts",
    "woeid": "12521103"
  },
  {
    "city": "Wildman Lake",
    "code": "EWD",
    "country": "United States",
    "icao": "",
    "lat": "61.1021",
    "lon": "-149.924",
    "name": "Wildman Lake",
    "state": "Alaska",
    "woeid": "12799607"
  },
  {
    "city": "New Bern",
    "code": "EWN",
    "country": "United States",
    "icao": "KEWN",
    "lat": "35.0786",
    "lon": "-77.0343",
    "name": "Craven County Regional Airport",
    "state": "North Carolina",
    "woeid": "12519354"
  },
  {
    "city": "Newark",
    "code": "EWR",
    "country": "United States",
    "icao": "KEWR",
    "lat": "40.6924",
    "lon": "-74.1843",
    "name": "Newark International Airport",
    "state": "New Jersey",
    "woeid": "12521127"
  },
  {
    "city": "Key West",
    "code": "EYW",
    "country": "United States",
    "icao": "KEYW",
    "lat": "24.5536",
    "lon": "-81.7551",
    "name": "Key West International Airport",
    "state": "Florida",
    "woeid": "12520456"
  },
  {
    "city": "Fairbanks",
    "code": "FAI",
    "country": "United States",
    "icao": "PAFA",
    "lat": "64.8183",
    "lon": "-147.866",
    "name": "Fairbanks International Airport",
    "state": "Alaska",
    "woeid": "12519682"
  },
  {
    "city": "Fargo",
    "code": "FAR",
    "country": "United States",
    "icao": "KFAR",
    "lat": "46.9195",
    "lon": "-96.8243",
    "name": "Hector International Airport",
    "state": "North Dakota",
    "woeid": "12520153"
  },
  {
    "city": "Fresno",
    "code": "FAT",
    "country": "United States",
    "icao": "KFAT",
    "lat": "36.7675",
    "lon": "-119.717",
    "name": "Fresno Yosemite International Airport",
    "state": "California",
    "woeid": "12519826"
  },
  {
    "city": "Fayetteville",
    "code": "FAY",
    "country": "United States",
    "icao": "KFAY",
    "lat": "34.9914",
    "lon": "-78.8889",
    "name": "Fayetteville Regional Airport",
    "state": "North Carolina",
    "woeid": "12519718"
  },
  {
    "city": "Kalispell",
    "code": "FCA",
    "country": "United States",
    "icao": "KFCA",
    "lat": "48.3075",
    "lon": "-114.252",
    "name": "Glacier Park International Airport",
    "state": "Montana",
    "woeid": "12519905"
  },
  {
    "city": "Franklin",
    "code": "FKL",
    "country": "United States",
    "icao": "KFKL",
    "lat": "41.3766",
    "lon": "-79.8573",
    "name": "Chess Lamberton Airport",
    "state": "Pennsylvania",
    "woeid": "12519170"
  },
  {
    "city": "Flagstaff",
    "code": "FLG",
    "country": "United States",
    "icao": "KFLG",
    "lat": "35.139",
    "lon": "-111.675",
    "name": "Flagstaff Pulliam Airport",
    "state": "Arizona",
    "woeid": "12521495"
  },
  {
    "city": "Dania Beach",
    "code": "FLL",
    "country": "United States",
    "icao": "KFLL",
    "lat": "26.0722",
    "lon": "-80.1354",
    "name": "Fort Lauderdale Hollywood International Airport",
    "state": "Florida",
    "woeid": "12519836"
  },
  {
    "city": "Florence",
    "code": "FLO",
    "country": "United States",
    "icao": "KFLO",
    "lat": "34.1936",
    "lon": "-79.7289",
    "name": "Florence Regional Airport",
    "state": "South Carolina",
    "woeid": "12519746"
  },
  {
    "city": "Farmington",
    "code": "FMN",
    "country": "United States",
    "icao": "KFMN",
    "lat": "36.7387",
    "lon": "-108.227",
    "name": "Four Corners Regional Airport",
    "state": "New Mexico",
    "woeid": "12519792"
  },
  {
    "city": "Fort Myers",
    "code": "FMY",
    "country": "United States",
    "icao": "KFMY",
    "lat": "26.5815",
    "lon": "-81.862",
    "name": "Page Field Airport",
    "state": "Florida",
    "woeid": "12521276"
  },
  {
    "city": "Loveland",
    "code": "FNL",
    "country": "United States",
    "icao": "KFNL",
    "lat": "40.4505",
    "lon": "-105.008",
    "name": "Fort Collins Loveland Municipal Airport",
    "state": "Colorado",
    "woeid": "12519773"
  },
  {
    "city": "Flint",
    "code": "FNT",
    "country": "United States",
    "icao": "KFNT",
    "lat": "42.9756",
    "lon": "-83.7411",
    "name": "Bishop International Airport",
    "state": "Michigan",
    "woeid": "12518841"
  },
  {
    "city": "Fort Dodge",
    "code": "FOD",
    "country": "United States",
    "icao": "KFOD",
    "lat": "42.5523",
    "lon": "-94.1819",
    "name": "Fort Dodge Regional Airport",
    "state": "Iowa",
    "woeid": "12519775"
  },
  {
    "city": "Friday Harbor",
    "code": "FRD",
    "country": "United States",
    "icao": "KFHR",
    "lat": "48.5252",
    "lon": "-123.027",
    "name": "Friday Harbor Airport",
    "state": "Washington",
    "woeid": "12519828"
  },
  {
    "city": "Sioux Falls",
    "code": "FSD",
    "country": "United States",
    "icao": "KFSD",
    "lat": "43.5813",
    "lon": "-96.7317",
    "name": "Sioux Falls Regional Airport",
    "state": "South Dakota",
    "woeid": "12520371"
  },
  {
    "city": "Fort Smith",
    "code": "FSM",
    "country": "United States",
    "icao": "KFSM",
    "lat": "36.1881",
    "lon": "-94.4944",
    "name": "Smith Field Airport",
    "state": "Arkansas",
    "woeid": "12521888"
  },
  {
    "city": "Fort Wayne",
    "code": "FWA",
    "country": "United States",
    "icao": "KFWA",
    "lat": "40.9883",
    "lon": "-85.1899",
    "name": "Fort Wayne Municipal Airport-Baer Field",
    "state": "Indiana",
    "woeid": "12519784"
  },
  {
    "city": "Fort Yukon",
    "code": "FYU",
    "country": "United States",
    "icao": "PFYU",
    "lat": "66.5714",
    "lon": "-145.25",
    "name": "Fort Yukon Airport",
    "state": "Alaska",
    "woeid": "12519788"
  },
  {
    "city": "Galena",
    "code": "GAL",
    "country": "United States",
    "icao": "PAGA",
    "lat": "64.7404",
    "lon": "-156.931",
    "name": "Galena Airport",
    "state": "Alaska",
    "woeid": "12519851"
  },
  {
    "city": "Gambell",
    "code": "GAM",
    "country": "United States",
    "icao": "PAGM",
    "lat": "63.7667",
    "lon": "-171.738",
    "name": "Gambell Airport",
    "state": "Alaska",
    "woeid": "12519858"
  },
  {
    "city": "Great Bend",
    "code": "GBD",
    "country": "United States",
    "icao": "KGBD",
    "lat": "38.352",
    "lon": "-98.853",
    "name": "Great Bend Municipal Airport",
    "state": "Kansas",
    "woeid": "12519973"
  },
  {
    "city": "Gillette",
    "code": "GCC",
    "country": "United States",
    "icao": "KGCC",
    "lat": "44.3465",
    "lon": "-105.533",
    "name": "Gillette Campbell County Airport",
    "state": "Wyoming",
    "woeid": "12519902"
  },
  {
    "city": "Pierceville",
    "code": "GCK",
    "country": "United States",
    "icao": "KGCK",
    "lat": "37.9267",
    "lon": "-100.719",
    "name": "Garden City Regional Airport",
    "state": "Kansas",
    "woeid": "12519861"
  },
  {
    "city": "Spokane",
    "code": "GEG",
    "country": "United States",
    "icao": "KGEG",
    "lat": "47.625",
    "lon": "-117.538",
    "name": "Spokane International Airport",
    "state": "Washington",
    "woeid": "12521938"
  },
  {
    "city": "Grand Forks",
    "code": "GFK",
    "country": "United States",
    "icao": "KGFK",
    "lat": "47.9494",
    "lon": "-97.1762",
    "name": "Grand Forks Mark Andrews International Airport",
    "state": "North Dakota",
    "woeid": "12519951"
  },
  {
    "city": "Longview",
    "code": "GGG",
    "country": "United States",
    "icao": "KGGG",
    "lat": "32.3874",
    "lon": "-94.7194",
    "name": "Gregg County Airport",
    "state": "Texas",
    "woeid": "12520015"
  },
  {
    "city": "Grand Junction",
    "code": "GJT",
    "country": "United States",
    "icao": "KGJT",
    "lat": "39.1217",
    "lon": "-108.529",
    "name": "Walker Field Airport",
    "state": "Colorado",
    "woeid": "12522315"
  },
  {
    "city": "Greenville",
    "code": "GLH",
    "country": "United States",
    "icao": "KGLH",
    "lat": "33.4819",
    "lon": "-90.9903",
    "name": "Mid Delta Regional Airport",
    "state": "Mississippi",
    "woeid": "12520935"
  },
  {
    "city": "Golovin",
    "code": "GLV",
    "country": "United States",
    "icao": "",
    "lat": "64.5433",
    "lon": "-163.033",
    "name": "Golovin",
    "state": "Alaska",
    "woeid": "2411932"
  },
  {
    "city": "Goodnews Bay",
    "code": "GNU",
    "country": "United States",
    "icao": "",
    "lat": "59.1218",
    "lon": "-161.588",
    "name": "Alaska",
    "state": "Alaska",
    "woeid": "2347560"
  },
  {
    "city": "Gainesville",
    "code": "GNV",
    "country": "United States",
    "icao": "KGNV",
    "lat": "29.6861",
    "lon": "-82.277",
    "name": "Gainesville Regional Airport",
    "state": "Florida",
    "woeid": "12519850"
  },
  {
    "city": "Gulfport",
    "code": "GPT",
    "country": "United States",
    "icao": "KGPT",
    "lat": "30.4133",
    "lon": "-89.072",
    "name": "Gulfport Biloxi Regional Airport",
    "state": "Mississippi",
    "woeid": "12520037"
  },
  {
    "city": "Green Bay",
    "code": "GRB",
    "country": "United States",
    "icao": "KGRB",
    "lat": "44.4923",
    "lon": "-88.1274",
    "name": "Austin Straubel International Airport",
    "state": "Wisconsin",
    "woeid": "12518709"
  },
  {
    "city": "Killeen",
    "code": "GRK",
    "country": "United States",
    "icao": "KGRK",
    "lat": "31.0615",
    "lon": "-97.8206",
    "name": "Killeen-Fort Hood Regional Airport",
    "state": "Texas",
    "woeid": "12521608"
  },
  {
    "city": "Grand Rapids",
    "code": "GRR",
    "country": "United States",
    "icao": "KGRR",
    "lat": "42.8841",
    "lon": "-85.5307",
    "name": "Gerald R. Ford International Airport",
    "state": "Michigan",
    "woeid": "12520445"
  },
  {
    "city": "Greensboro",
    "code": "GSO",
    "country": "United States",
    "icao": "KGSO",
    "lat": "36.1038",
    "lon": "-79.9427",
    "name": "Triad International Airport",
    "state": "North Carolina",
    "woeid": "12522200"
  },
  {
    "city": "Greer",
    "code": "GSP",
    "country": "United States",
    "icao": "KGSP",
    "lat": "34.8907",
    "lon": "-82.2167",
    "name": "Greenville Spartanburg International Airport",
    "state": "South Carolina",
    "woeid": "12520010"
  },
  {
    "city": "Gustavus",
    "code": "GST",
    "country": "United States",
    "icao": "PAGS",
    "lat": "58.4246",
    "lon": "-135.707",
    "name": "Gustavus Airport",
    "state": "Alaska",
    "woeid": "12520042"
  },
  {
    "city": "Great Falls",
    "code": "GTF",
    "country": "United States",
    "icao": "KGTF",
    "lat": "47.482",
    "lon": "-111.356",
    "name": "Great Falls International Airport",
    "state": "Montana",
    "woeid": "12519974"
  },
  {
    "city": "Columbus",
    "code": "GTR",
    "country": "United States",
    "icao": "KGTR",
    "lat": "33.4516",
    "lon": "-88.5876",
    "name": "Golden Triangle Regional Airport",
    "state": "Mississippi",
    "woeid": "12519926"
  },
  {
    "city": "Gunnison",
    "code": "GUC",
    "country": "United States",
    "icao": "KGUC",
    "lat": "38.5356",
    "lon": "-106.941",
    "name": "Gunnison County Airport",
    "state": "Colorado",
    "woeid": "12520039"
  },
  {
    "city": "Hagta",
    "code": "GUM",
    "country": "United States",
    "icao": "PGUM",
    "lat": "13.4833",
    "lon": "144.796",
    "name": "Antonio B Won Pat International Airport",
    "state": "Guam",
    "woeid": "12523115"
  },
  {
    "city": "Havasupai",
    "code": "HAE",
    "country": "United States",
    "icao": "KHAE",
    "lat": "36.2306",
    "lon": "-112.669",
    "name": "Havasupai",
    "state": "Arizona",
    "woeid": "12794857"
  },
  {
    "city": "Holy Cross",
    "code": "HCR",
    "country": "United States",
    "icao": "",
    "lat": "62.2016",
    "lon": "-159.77",
    "name": "Alaska",
    "state": "Alaska",
    "woeid": "2347560"
  },
  {
    "city": "Hayden",
    "code": "HDN",
    "country": "United States",
    "icao": "KHDN",
    "lat": "40.485",
    "lon": "-107.219",
    "name": "Yampa Valley Airport",
    "state": "Colorado",
    "woeid": "12522528"
  },
  {
    "city": "Hilton Head Island",
    "code": "HHH",
    "country": "United States",
    "icao": "",
    "lat": "32.2267",
    "lon": "-80.6989",
    "name": "Hilton Head Airport",
    "state": "South Carolina",
    "woeid": "12520191"
  },
  {
    "city": "Hibbing",
    "code": "HIB",
    "country": "United States",
    "icao": "KHIB",
    "lat": "47.3934",
    "lon": "-92.8418",
    "name": "Chisholm Hibbing Airport",
    "state": "Minnesota",
    "woeid": "12519189"
  },
  {
    "city": "Healy Lake",
    "code": "HKB",
    "country": "United States",
    "icao": "",
    "lat": "63.8667",
    "lon": "-148.967",
    "name": "Healy Lake Airport",
    "state": "Alaska",
    "woeid": "12799776"
  },
  {
    "city": "Helena",
    "code": "HLN",
    "country": "United States",
    "icao": "KHLN",
    "lat": "46.6104",
    "lon": "-111.99",
    "name": "Helena Regional Airport",
    "state": "Montana",
    "woeid": "12520154"
  },
  {
    "city": "Hoonah",
    "code": "HNH",
    "country": "United States",
    "icao": "PAOH",
    "lat": "58.0966",
    "lon": "-135.41",
    "name": "Hoonah Airport",
    "state": "Alaska",
    "woeid": "29388566"
  },
  {
    "city": "Honolulu",
    "code": "HNL",
    "country": "United States",
    "icao": "PHNL",
    "lat": "21.3358",
    "lon": "-157.919",
    "name": "Honolulu International Airport",
    "state": "Hawaii",
    "woeid": "12520216"
  },
  {
    "city": "Hana",
    "code": "HNM",
    "country": "United States",
    "icao": "PHHN",
    "lat": "20.7944",
    "lon": "-156.015",
    "name": "Hana Airport",
    "state": "Hawaii",
    "woeid": "12520072"
  },
  {
    "city": "Haines",
    "code": "HNS",
    "country": "United States",
    "icao": "PAHN",
    "lat": "59.2439",
    "lon": "-135.524",
    "name": "Haines Airport",
    "state": "Alaska",
    "woeid": "29388567"
  },
  {
    "city": "Hobbs",
    "code": "HOB",
    "country": "United States",
    "icao": "KHOB",
    "lat": "32.6929",
    "lon": "-103.215",
    "name": "Lea County Regional Airport",
    "state": "New Mexico",
    "woeid": "12520599"
  },
  {
    "city": "Homer",
    "code": "HOM",
    "country": "United States",
    "icao": "PAHO",
    "lat": "59.6408",
    "lon": "-151.499",
    "name": "Homer Airport",
    "state": "Alaska",
    "woeid": "12520209"
  },
  {
    "city": "Huron",
    "code": "HON",
    "country": "United States",
    "icao": "KHON",
    "lat": "44.3833",
    "lon": "-98.2333",
    "name": "Howes",
    "state": "South Dakota",
    "woeid": "12782876"
  },
  {
    "city": "Houston",
    "code": "HOU",
    "country": "United States",
    "icao": "KHOU",
    "lat": "29.6572",
    "lon": "-95.2795",
    "name": "William P Hobby Airport",
    "state": "Texas",
    "woeid": "12522451"
  },
  {
    "city": "Hooper Bay",
    "code": "HPB",
    "country": "United States",
    "icao": "PAHP",
    "lat": "61.5262",
    "lon": "-166.142",
    "name": "Hooper Bay Airport",
    "state": "Alaska",
    "woeid": "12520222"
  },
  {
    "city": "Purchase",
    "code": "HPN",
    "country": "United States",
    "icao": "KHPN",
    "lat": "41.0693",
    "lon": "-73.7042",
    "name": "Westchester County Airport",
    "state": "New York",
    "woeid": "12522396"
  },
  {
    "city": "Harlingen",
    "code": "HRL",
    "country": "United States",
    "icao": "KHRL",
    "lat": "26.2216",
    "lon": "-97.663",
    "name": "Grande Valley International Airport",
    "state": "Texas",
    "woeid": "12519957"
  },
  {
    "city": "Huslia",
    "code": "HSL",
    "country": "United States",
    "icao": "",
    "lat": "65.7024",
    "lon": "-156.387",
    "name": "Alaska",
    "state": "Alaska",
    "woeid": "2347560"
  },
  {
    "city": "Huntsville",
    "code": "HSV",
    "country": "United States",
    "icao": "KHSV",
    "lat": "34.6492",
    "lon": "-86.7767",
    "name": "Huntsville International Airport",
    "state": "Alabama",
    "woeid": "12519069"
  },
  {
    "city": "Huntington",
    "code": "HTS",
    "country": "United States",
    "icao": "KHTS",
    "lat": "38.37",
    "lon": "-82.5542",
    "name": "Tri State Walker Long Field Airport",
    "state": "West Virginia",
    "woeid": "12522198"
  },
  {
    "city": "Hughes",
    "code": "HUS",
    "country": "United States",
    "icao": "",
    "lat": "66.0443",
    "lon": "-154.258",
    "name": "Hughes",
    "state": "Alaska",
    "woeid": "2425379"
  },
  {
    "city": "East Haven",
    "code": "HVN",
    "country": "United States",
    "icao": "KHVN",
    "lat": "41.2709",
    "lon": "-72.89",
    "name": "Tweed New Haven Airport",
    "state": "Connecticut",
    "woeid": "12522229"
  },
  {
    "city": "Havre",
    "code": "HVR",
    "country": "United States",
    "icao": "KHVR",
    "lat": "48.5461",
    "lon": "-109.773",
    "name": "Havre City-County Airport",
    "state": "Montana",
    "woeid": "12520127"
  },
  {
    "city": "Hyannis",
    "code": "HYA",
    "country": "United States",
    "icao": "KHYA",
    "lat": "41.6667",
    "lon": "-70.2863",
    "name": "Barnstable Boardman Polando Airport",
    "state": "Massachusetts",
    "woeid": "12518745"
  },
  {
    "city": "Hydaburg",
    "code": "HYG",
    "country": "United States",
    "icao": "",
    "lat": "55.205",
    "lon": "-132.822",
    "name": "Alaska",
    "state": "Alaska",
    "woeid": "2347560"
  },
  {
    "city": "Hollis",
    "code": "HYL",
    "country": "United States",
    "icao": "",
    "lat": "55.4833",
    "lon": "-132.65",
    "name": "SPB",
    "state": "Alaska",
    "woeid": "12799854"
  },
  {
    "city": "Hays",
    "code": "HYS",
    "country": "United States",
    "icao": "KHYS",
    "lat": "38.8546",
    "lon": "-99.2737",
    "name": "Hays Municipal Airport",
    "state": "Kansas",
    "woeid": "12520139"
  },
  {
    "city": "Washington",
    "code": "IAD",
    "country": "United States",
    "icao": "KIAD",
    "lat": "38.9556",
    "lon": "-77.4484",
    "name": "Dulles International Airport",
    "state": "Virginia",
    "woeid": "12519544"
  },
  {
    "city": "Niagara Falls",
    "code": "IAG",
    "country": "United States",
    "icao": "KIAG",
    "lat": "43.1",
    "lon": "-78.9423",
    "name": "Niagara Falls International Airport",
    "state": "New York",
    "woeid": "12521138"
  },
  {
    "city": "Houston",
    "code": "IAH",
    "country": "United States",
    "icao": "KIAH",
    "lat": "29.9784",
    "lon": "-95.3424",
    "name": "George Bush Intercontinental Airport",
    "state": "Texas",
    "woeid": "12520245"
  },
  {
    "city": "Kiana",
    "code": "IAN",
    "country": "United States",
    "icao": "PAIK",
    "lat": "66.9699",
    "lon": "-160.429",
    "name": "Kiana",
    "state": "Alaska",
    "woeid": "2432151"
  },
  {
    "city": "Wichita",
    "code": "ICT",
    "country": "United States",
    "icao": "KICT",
    "lat": "37.6531",
    "lon": "-97.43",
    "name": "Wichita Mid-Continent Airport",
    "state": "Kansas",
    "woeid": "12522432"
  },
  {
    "city": "Idaho Falls",
    "code": "IDA",
    "country": "United States",
    "icao": "KIDA",
    "lat": "43.5147",
    "lon": "-112.068",
    "name": "Fanning Field Airport",
    "state": "Idaho",
    "woeid": "12519708"
  },
  {
    "city": "Bullhead City",
    "code": "IFP",
    "country": "United States",
    "icao": "KIFP",
    "lat": "35.1657",
    "lon": "-114.557",
    "name": "Laughlin-Bullhead International Airport",
    "state": "Arizona",
    "woeid": "12518972"
  },
  {
    "city": "Igiugig",
    "code": "IGG",
    "country": "United States",
    "icao": "PAIG",
    "lat": "59.3167",
    "lon": "-155.9",
    "name": "Igiugig",
    "state": "Alaska",
    "woeid": "12520567"
  },
  {
    "city": "Kingman",
    "code": "IGM",
    "country": "United States",
    "icao": "KIGM",
    "lat": "35.2692",
    "lon": "-113.957",
    "name": "Kingman Airport",
    "state": "Arizona",
    "woeid": "12520468"
  },
  {
    "city": "Nikolski",
    "code": "IKO",
    "country": "United States",
    "icao": "PAKO",
    "lat": "52.9389",
    "lon": "-168.868",
    "name": "Nikolski",
    "state": "Alaska",
    "woeid": "2459970"
  },
  {
    "city": "Iliamna",
    "code": "ILI",
    "country": "United States",
    "icao": "PAIL",
    "lat": "59.7555",
    "lon": "-154.918",
    "name": "Iliamna Airport",
    "state": "Alaska",
    "woeid": "29387741"
  },
  {
    "city": "Wilmington",
    "code": "ILM",
    "country": "United States",
    "icao": "KILM",
    "lat": "34.2668",
    "lon": "-77.912",
    "name": "Wilmington International Airport",
    "state": "North Carolina",
    "woeid": "12521109"
  },
  {
    "city": "Wilmington",
    "code": "ILN",
    "country": "United States",
    "icao": "KILN",
    "lat": "39.4348",
    "lon": "-83.7982",
    "name": "Airborne Airpark",
    "state": "Ohio",
    "woeid": "12518539"
  },
  {
    "city": "Kingsford",
    "code": "IMT",
    "country": "United States",
    "icao": "KIMT",
    "lat": "45.8153",
    "lon": "-88.1185",
    "name": "Ford Airport",
    "state": "Michigan",
    "woeid": "12519761"
  },
  {
    "city": "Indianapolis",
    "code": "IND",
    "country": "United States",
    "icao": "KIND",
    "lat": "39.7322",
    "lon": "-86.2707",
    "name": "Indianapolis International Airport",
    "state": "Indiana",
    "woeid": "12520294"
  },
  {
    "city": "International Falls",
    "code": "INL",
    "country": "United States",
    "icao": "KINL",
    "lat": "48.5661",
    "lon": "-93.3978",
    "name": "Falls International Airport",
    "state": "Minnesota",
    "woeid": "12519705"
  },
  {
    "city": "Winston-Salem",
    "code": "INT",
    "country": "United States",
    "icao": "KINT",
    "lat": "36.1361",
    "lon": "-80.2294",
    "name": "Smith Reynolds Airport",
    "state": "North Carolina",
    "woeid": "12521891"
  },
  {
    "city": "Imperial",
    "code": "IPL",
    "country": "United States",
    "icao": "KIPL",
    "lat": "32.8332",
    "lon": "-115.57",
    "name": "Imperial County Airport",
    "state": "California",
    "woeid": "12520284"
  },
  {
    "city": "Montoursville",
    "code": "IPT",
    "country": "United States",
    "icao": "KIPT",
    "lat": "41.2441",
    "lon": "-76.9276",
    "name": "Williamsport-Lycoming County Airport",
    "state": "Pennsylvania",
    "woeid": "12522464"
  },
  {
    "city": "Circle",
    "code": "IRC",
    "country": "United States",
    "icao": "",
    "lat": "65.8245",
    "lon": "-144.063",
    "name": "Circle",
    "state": "Alaska",
    "woeid": "2380412"
  },
  {
    "city": "Irma",
    "code": "IRM",
    "country": "United States",
    "icao": "",
    "lat": "45.3517",
    "lon": "-89.6665",
    "name": "",
    "state": "Wisconsin",
    "woeid": "2427520"
  },
  {
    "city": "Williston",
    "code": "ISN",
    "country": "United States",
    "icao": "KISN",
    "lat": "48.1767",
    "lon": "-103.631",
    "name": "Sloulin Field International Airport",
    "state": "North Dakota",
    "woeid": "12521885"
  },
  {
    "city": "Kinston",
    "code": "ISO",
    "country": "United States",
    "icao": "KISO",
    "lat": "35.3243",
    "lon": "-77.6115",
    "name": "Kinston Jetport Stallings Airport",
    "state": "North Carolina",
    "woeid": "12520475"
  },
  {
    "city": "Ronkonkoma",
    "code": "ISP",
    "country": "United States",
    "icao": "KISP",
    "lat": "40.7891",
    "lon": "-73.0984",
    "name": "Long Island Macarthur Airport",
    "state": "New York",
    "woeid": "12520697"
  },
  {
    "city": "Ithaca",
    "code": "ITH",
    "country": "United States",
    "icao": "KITH",
    "lat": "42.4898",
    "lon": "-76.4627",
    "name": "Tompkins County Airport",
    "state": "New York",
    "woeid": "12522159"
  },
  {
    "city": "Hilo",
    "code": "ITO",
    "country": "United States",
    "icao": "PHTO",
    "lat": "19.7126",
    "lon": "-155.042",
    "name": "Hilo International Airport",
    "state": "Hawaii",
    "woeid": "12520190"
  },
  {
    "city": "Ironwood",
    "code": "IWD",
    "country": "United States",
    "icao": "KIWD",
    "lat": "46.5208",
    "lon": "-90.1344",
    "name": "Gogebic-Iron County Airport",
    "state": "Michigan",
    "woeid": "12520317"
  },
  {
    "city": "Inyokern",
    "code": "IYK",
    "country": "United States",
    "icao": "KIYK",
    "lat": "35.6606",
    "lon": "-117.816",
    "name": "Inyokern Airport",
    "state": "California",
    "woeid": "12520307"
  },
  {
    "city": "Jackson",
    "code": "JAC",
    "country": "United States",
    "icao": "KJAC",
    "lat": "43.6034",
    "lon": "-110.736",
    "name": "Jackson Hole Airport",
    "state": "Wyoming",
    "woeid": "12520335"
  },
  {
    "city": "Pearl",
    "code": "JAN",
    "country": "United States",
    "icao": "KJAN",
    "lat": "32.3089",
    "lon": "-90.0733",
    "name": "Jackson International Airport",
    "state": "Mississippi",
    "woeid": "12520336"
  },
  {
    "city": "Jacksonville",
    "code": "JAX",
    "country": "United States",
    "icao": "KJAX",
    "lat": "30.4914",
    "lon": "-81.676",
    "name": "Jacksonville International Airport",
    "state": "Florida",
    "woeid": "12520339"
  },
  {
    "city": "Holts Summit",
    "code": "JEF",
    "country": "United States",
    "icao": "KJEF",
    "lat": "38.593",
    "lon": "-92.1652",
    "name": "Jefferson City Memorial Airport",
    "state": "Missouri",
    "woeid": "12520356"
  },
  {
    "city": "Jamaica",
    "code": "JFK",
    "country": "United States",
    "icao": "KJFK",
    "lat": "40.6437",
    "lon": "-73.79",
    "name": "John F Kennedy International Airport",
    "state": "New York",
    "woeid": "12520380"
  },
  {
    "city": "Williams",
    "code": "JGC",
    "country": "United States",
    "icao": "",
    "lat": "35.9621",
    "lon": "-112.133",
    "name": "Grand Canyon Heliport",
    "state": "Arizona",
    "woeid": "12523301"
  },
  {
    "city": "Lahaina",
    "code": "JHM",
    "country": "United States",
    "icao": "PHJH",
    "lat": "20.9619",
    "lon": "-156.676",
    "name": "Kapalua West Maui Airport",
    "state": "Hawaii",
    "woeid": "12520422"
  },
  {
    "city": "Jamestown",
    "code": "JHW",
    "country": "United States",
    "icao": "KJHW",
    "lat": "42.1528",
    "lon": "-79.2666",
    "name": "Chautauqua County-Jamestown Airport",
    "state": "New York",
    "woeid": "12519155"
  },
  {
    "city": "Jackson",
    "code": "JKL",
    "country": "United States",
    "icao": "KJKL",
    "lat": "37.5917",
    "lon": "-83.315",
    "name": "Julian Carroll Airport",
    "state": "Kentucky",
    "woeid": "12520407"
  },
  {
    "city": "Webb City",
    "code": "JLN",
    "country": "United States",
    "icao": "KJLN",
    "lat": "37.147",
    "lon": "-94.5019",
    "name": "Joplin Regional Airport",
    "state": "Missouri",
    "woeid": "12520400"
  },
  {
    "city": "Jamestown",
    "code": "JMS",
    "country": "United States",
    "icao": "KJMS",
    "lat": "46.9243",
    "lon": "-98.6788",
    "name": "Jamestown Municipal Airport",
    "state": "North Dakota",
    "woeid": "12520348"
  },
  {
    "city": "Juneau",
    "code": "JNU",
    "country": "United States",
    "icao": "PAJN",
    "lat": "58.3598",
    "lon": "-134.583",
    "name": "Juneau International Airport",
    "state": "Alaska",
    "woeid": "12520409"
  },
  {
    "city": "New York",
    "code": "JRB",
    "country": "United States",
    "icao": "KJRB",
    "lat": "40.7039",
    "lon": "-74.0129",
    "name": "Downtown Manhattan Heliport",
    "state": "New York",
    "woeid": "12523144"
  },
  {
    "city": "Johnstown",
    "code": "JST",
    "country": "United States",
    "icao": "KJST",
    "lat": "40.3208",
    "lon": "-78.8306",
    "name": "Johnstown Cambria County Airport",
    "state": "Pennsylvania",
    "woeid": "12520393"
  },
  {
    "city": "Kaltag",
    "code": "KAL",
    "country": "United States",
    "icao": "PAKV",
    "lat": "64.3248",
    "lon": "-158.725",
    "name": "Kaltag",
    "state": "Alaska",
    "woeid": "2430534"
  },
  {
    "city": "Birch Creek",
    "code": "KBC",
    "country": "United States",
    "icao": "",
    "lat": "66.2667",
    "lon": "-145.8",
    "name": "Birch Creek Airport",
    "state": "Alaska",
    "woeid": "12518834"
  },
  {
    "city": "Coffman Cove",
    "code": "KCC",
    "country": "United States",
    "icao": "",
    "lat": "56.014",
    "lon": "-132.826",
    "name": "Alaska",
    "state": "Alaska",
    "woeid": "2347560"
  },
  {
    "city": "Chignik Lagoon",
    "code": "KCG",
    "country": "United States",
    "icao": "",
    "lat": "56.3173",
    "lon": "-158.596",
    "name": "Chignik Fisheries Airport",
    "state": "Alaska",
    "woeid": "12523152"
  },
  {
    "city": "Chignik Lagoon",
    "code": "KCL",
    "country": "United States",
    "icao": "",
    "lat": "56.3065",
    "lon": "-158.537",
    "name": "Chignik Lagoon Airport",
    "state": "Alaska",
    "woeid": "12523153"
  },
  {
    "city": "Chignik",
    "code": "KCQ",
    "country": "United States",
    "icao": "PAJC",
    "lat": "56.3119",
    "lon": "-158.362",
    "name": "Chignik Lake Airport",
    "state": "Alaska",
    "woeid": "12523154"
  },
  {
    "city": "Nanwalek",
    "code": "KEB",
    "country": "United States",
    "icao": "",
    "lat": "41.0833",
    "lon": "-92.4583",
    "name": "Nanwalek",
    "state": "Alaska",
    "woeid": "23417038"
  },
  {
    "city": "Ekwok",
    "code": "KEK",
    "country": "United States",
    "icao": "",
    "lat": "59.3516",
    "lon": "-157.48",
    "name": "Ekwok",
    "state": "Alaska",
    "woeid": "2397726"
  },
  {
    "city": "False Pass",
    "code": "KFP",
    "country": "United States",
    "icao": "",
    "lat": "54.85",
    "lon": "-163.417",
    "name": "",
    "state": "Alaska",
    "woeid": "2402200"
  },
  {
    "city": "New Koliganek",
    "code": "KGK",
    "country": "United States",
    "icao": "",
    "lat": "59.7266",
    "lon": "-157.26",
    "name": "Koliganek Airport",
    "state": "Alaska",
    "woeid": "29388571"
  },
  {
    "city": "Grayling",
    "code": "KGX",
    "country": "United States",
    "icao": "",
    "lat": "62.9053",
    "lon": "-160.067",
    "name": "Alaska",
    "state": "Alaska",
    "woeid": "2347560"
  },
  {
    "city": "Koyuk",
    "code": "KKA",
    "country": "United States",
    "icao": "PAKK",
    "lat": "64.9311",
    "lon": "-161.16",
    "name": "Koyuk",
    "state": "Alaska",
    "woeid": "2433864"
  },
  {
    "city": "Kitoi Bay",
    "code": "KKB",
    "country": "United States",
    "icao": "",
    "lat": "58.1869",
    "lon": "-152.375",
    "name": "Kitoi Seaplane Base",
    "state": "Alaska",
    "woeid": "12524650"
  },
  {
    "city": "Kongiganak",
    "code": "KKH",
    "country": "United States",
    "icao": "",
    "lat": "62.8903",
    "lon": "-149.054",
    "name": "Alaska",
    "state": "Alaska",
    "woeid": "2347560"
  },
  {
    "city": "Akiachak",
    "code": "KKI",
    "country": "United States",
    "icao": "",
    "lat": "60.9057",
    "lon": "-161.424",
    "name": "Akiachak",
    "state": "Alaska",
    "woeid": "2352459"
  },
  {
    "city": "Clarks Point",
    "code": "KKU",
    "country": "United States",
    "icao": "",
    "lat": "58.8167",
    "lon": "-158.55",
    "name": "Ekuk Airport",
    "state": "Alaska",
    "woeid": "12524622"
  },
  {
    "city": "Kalskag",
    "code": "KLG",
    "country": "United States",
    "icao": "PALG",
    "lat": "61.5382",
    "lon": "-160.314",
    "name": "Kalskag",
    "state": "Alaska",
    "woeid": "2430533"
  },
  {
    "city": "Levelock",
    "code": "KLL",
    "country": "United States",
    "icao": "",
    "lat": "59.1126",
    "lon": "-156.856",
    "name": "Levelock",
    "state": "Alaska",
    "woeid": "2438614"
  },
  {
    "city": "Larsen Bay",
    "code": "KLN",
    "country": "United States",
    "icao": "",
    "lat": "57.5383",
    "lon": "-153.98",
    "name": "Larsen Bay",
    "state": "Alaska",
    "woeid": "23510510"
  },
  {
    "city": "Klawock",
    "code": "KLW",
    "country": "United States",
    "icao": "",
    "lat": "55.5743",
    "lon": "-133.064",
    "name": "Klawock Seaplane Base",
    "state": "Alaska",
    "woeid": "12520485"
  },
  {
    "city": "King Khalid Mil. City",
    "code": "KMC",
    "country": "United States",
    "icao": "",
    "lat": "57.1333",
    "lon": "-153.2",
    "name": "King Khalid Military",
    "state": "Alaska",
    "woeid": "2433701"
  },
  {
    "city": "Manokotak",
    "code": "KMO",
    "country": "United States",
    "icao": "",
    "lat": "58.9817",
    "lon": "-159.058",
    "name": "Manokotak",
    "state": "Alaska",
    "woeid": "2444918"
  },
  {
    "city": "Moser Bay",
    "code": "KMY",
    "country": "United States",
    "icao": "",
    "lat": "57",
    "lon": "-154.167",
    "name": "Moser Bay",
    "state": "Alaska",
    "woeid": "12799674"
  },
  {
    "city": "Kakhonak",
    "code": "KNK",
    "country": "United States",
    "icao": "",
    "lat": "59.4333",
    "lon": "-154.85",
    "name": "",
    "state": "Alaska",
    "woeid": "2430469"
  },
  {
    "city": "New Stuyahok",
    "code": "KNW",
    "country": "United States",
    "icao": "PANW",
    "lat": "59.4513",
    "lon": "-157.317",
    "name": "New Stuyahok",
    "state": "Alaska",
    "woeid": "2459005"
  },
  {
    "city": "Kailua Kona",
    "code": "KOA",
    "country": "United States",
    "icao": "PHKO",
    "lat": "19.7334",
    "lon": "-156.039",
    "name": "Kailua-Kona International Airport",
    "state": "Hawaii",
    "woeid": "12520428"
  },
  {
    "city": "Kotlik",
    "code": "KOT",
    "country": "United States",
    "icao": "",
    "lat": "63.0328",
    "lon": "-163.554",
    "name": "Kotlik",
    "state": "Alaska",
    "woeid": "2433856"
  },
  {
    "city": "Olga Bay",
    "code": "KOY",
    "country": "United States",
    "icao": "",
    "lat": "47.902",
    "lon": "-112.265",
    "name": "Olga Bay",
    "state": "Alaska",
    "woeid": "2347560"
  },
  {
    "city": "Ouzinkie",
    "code": "KOZ",
    "country": "United States",
    "icao": "",
    "lat": "62.8903",
    "lon": "-149.054",
    "name": "Alaska",
    "state": "Alaska",
    "woeid": "2347560"
  },
  {
    "city": "Point Baker",
    "code": "KPB",
    "country": "United States",
    "icao": "",
    "lat": "56.3502",
    "lon": "-133.622",
    "name": "Point Baker Seaplane Base",
    "state": "Alaska",
    "woeid": "12523156"
  },
  {
    "city": "Brevig Mission",
    "code": "KPC",
    "country": "United States",
    "icao": "PAPC",
    "lat": "65.2544",
    "lon": "-166.856",
    "name": "Port Clarence Coast Guard Station",
    "state": "Alaska",
    "woeid": "12521440"
  },
  {
    "city": "Kipnuk",
    "code": "KPN",
    "country": "United States",
    "icao": "",
    "lat": "59.9371",
    "lon": "-164.041",
    "name": "Kipnuk",
    "state": "Alaska",
    "woeid": "2433000"
  },
  {
    "city": "Port Williams",
    "code": "KPR",
    "country": "United States",
    "icao": "",
    "lat": "58.4833",
    "lon": "-152.583",
    "name": "Port Williams",
    "state": "Alaska",
    "woeid": "12485470"
  },
  {
    "city": "Perryville",
    "code": "KPV",
    "country": "United States",
    "icao": "",
    "lat": "55.9122",
    "lon": "-159.154",
    "name": "Alaska",
    "state": "Alaska",
    "woeid": "2347560"
  },
  {
    "city": "Port Bailey",
    "code": "KPY",
    "country": "United States",
    "icao": "",
    "lat": "58.743",
    "lon": "-154.96",
    "name": "Alaska",
    "state": "Alaska",
    "woeid": "2347560"
  },
  {
    "city": "Akutan",
    "code": "KQA",
    "country": "United States",
    "icao": "",
    "lat": "54.1271",
    "lon": "-165.889",
    "name": "Akutan Airport",
    "state": "Alaska",
    "woeid": "12518551"
  },
  {
    "city": "Saint Marys",
    "code": "KSM",
    "country": "United States",
    "icao": "PASM",
    "lat": "62.0503",
    "lon": "-163.179",
    "name": "Alaska",
    "state": "Alaska",
    "woeid": "2347560"
  },
  {
    "city": "Thorne Bay",
    "code": "KTB",
    "country": "United States",
    "icao": "",
    "lat": "55.6833",
    "lon": "-132.529",
    "name": "Alaska",
    "state": "Alaska",
    "woeid": "2347560"
  },
  {
    "city": "Ketchikan",
    "code": "KTN",
    "country": "United States",
    "icao": "PAKT",
    "lat": "55.354",
    "lon": "-131.706",
    "name": "Ketchikan International Airport",
    "state": "Alaska",
    "woeid": "12520453"
  },
  {
    "city": "Teller Mission",
    "code": "KTS",
    "country": "United States",
    "icao": "",
    "lat": "65.3333",
    "lon": "-166.483",
    "name": "",
    "state": "Alaska",
    "woeid": "2347560"
  },
  {
    "city": "Kasigluk",
    "code": "KUK",
    "country": "United States",
    "icao": "",
    "lat": "60.8953",
    "lon": "-162.517",
    "name": "Kasigluk",
    "state": "Alaska",
    "woeid": "2430788"
  },
  {
    "city": "King Cove",
    "code": "KVC",
    "country": "United States",
    "icao": "",
    "lat": "55.0667",
    "lon": "-162.317",
    "name": "",
    "state": "Alaska",
    "woeid": "2432507"
  },
  {
    "city": "Kivalina",
    "code": "KVL",
    "country": "United States",
    "icao": "PAVL",
    "lat": "67.7333",
    "lon": "-164.667",
    "name": "Kivalina",
    "state": "Alaska",
    "woeid": "12799789"
  },
  {
    "city": "Kwigillingok",
    "code": "KWK",
    "country": "United States",
    "icao": "",
    "lat": "59.9077",
    "lon": "-163.026",
    "name": "Kwigillingok",
    "state": "Alaska",
    "woeid": "2434060"
  },
  {
    "city": "Quinhagak",
    "code": "KWN",
    "country": "United States",
    "icao": "",
    "lat": "59.7511",
    "lon": "-161.908",
    "name": "Quinhagak",
    "state": "Alaska",
    "woeid": "2477888"
  },
  {
    "city": "West Point",
    "code": "KWP",
    "country": "United States",
    "icao": "",
    "lat": "57.7696",
    "lon": "-153.554",
    "name": "Village Seaplane Base-West Point",
    "state": "Alaska",
    "woeid": "12523157"
  },
  {
    "city": "Kwethluk",
    "code": "KWT",
    "country": "United States",
    "icao": "",
    "lat": "60.8",
    "lon": "-161.45",
    "name": "Kwethluk Airport",
    "state": "Alaska",
    "woeid": "2434059"
  },
  {
    "city": "Kasaan",
    "code": "KXA",
    "country": "United States",
    "icao": "",
    "lat": "55.5",
    "lon": "-132.5",
    "name": "Kasaan SPB",
    "state": "Alaska",
    "woeid": "2430774"
  },
  {
    "city": "Kodiak",
    "code": "KYK",
    "country": "United States",
    "icao": "PAKY",
    "lat": "57.5645",
    "lon": "-154.454",
    "name": "Karluk Airport",
    "state": "Alaska",
    "woeid": "12523158"
  },
  {
    "city": "Koyukuk",
    "code": "KYU",
    "country": "United States",
    "icao": "",
    "lat": "64.9",
    "lon": "-157.7",
    "name": "Koyukuk",
    "state": "Alaska",
    "woeid": "12799793"
  },
  {
    "city": "Zachar Bay",
    "code": "KZB",
    "country": "United States",
    "icao": "",
    "lat": "57.55",
    "lon": "-153.75",
    "name": "Zachar Bay",
    "state": "Alaska",
    "woeid": "12799679"
  },
  {
    "city": "Lansing",
    "code": "LAN",
    "country": "United States",
    "icao": "KLAN",
    "lat": "42.7728",
    "lon": "-84.5888",
    "name": "Lansing Capital City Airport",
    "state": "Michigan",
    "woeid": "12519060"
  },
  {
    "city": "Laramie",
    "code": "LAR",
    "country": "United States",
    "icao": "KLAR",
    "lat": "37.8527",
    "lon": "-76.517",
    "name": "General Brees Field",
    "state": "Wyoming",
    "woeid": "12793533"
  },
  {
    "city": "Las Vegas",
    "code": "LAS",
    "country": "United States",
    "icao": "KLAS",
    "lat": "36.0806",
    "lon": "-115.143",
    "name": "Mccarran International Airport",
    "state": "Nevada",
    "woeid": "12520849"
  },
  {
    "city": "Lawton",
    "code": "LAW",
    "country": "United States",
    "icao": "KLAW",
    "lat": "34.573",
    "lon": "-98.4135",
    "name": "Lawton Municipal Airport",
    "state": "Oklahoma",
    "woeid": "12520593"
  },
  {
    "city": "Los Angeles",
    "code": "LAX",
    "country": "United States",
    "icao": "KLAX",
    "lat": "33.9456",
    "lon": "-118.391",
    "name": "Los Angeles International Airport",
    "state": "California",
    "woeid": "12520706"
  },
  {
    "city": "Lubbock",
    "code": "LBB",
    "country": "United States",
    "icao": "KLBB",
    "lat": "33.6566",
    "lon": "-101.821",
    "name": "Lubbock International Airport",
    "state": "Texas",
    "woeid": "12520718"
  },
  {
    "city": "Latrobe",
    "code": "LBE",
    "country": "United States",
    "icao": "KLBE",
    "lat": "40.2728",
    "lon": "-79.4056",
    "name": "Westmoreland County Airport",
    "state": "Pennsylvania",
    "woeid": "12522400"
  },
  {
    "city": "North Platte",
    "code": "LBF",
    "country": "United States",
    "icao": "KLBF",
    "lat": "41.1333",
    "lon": "-100.705",
    "name": "Lee Bird Field Airport",
    "state": "Nebraska",
    "woeid": "12520609"
  },
  {
    "city": "Liberal",
    "code": "LBL",
    "country": "United States",
    "icao": "KLBL",
    "lat": "37.0446",
    "lon": "-100.952",
    "name": "Liberal Municipal Airport",
    "state": "Kansas",
    "woeid": "12520643"
  },
  {
    "city": "Lake Charles",
    "code": "LCH",
    "country": "United States",
    "icao": "KLCH",
    "lat": "30.1235",
    "lon": "-93.2198",
    "name": "Lake Charles Regional Airport",
    "state": "Louisiana",
    "woeid": "12520523"
  },
  {
    "city": "Columbus",
    "code": "LCK",
    "country": "United States",
    "icao": "KLCK",
    "lat": "39.8176",
    "lon": "-82.936",
    "name": "Rickenbacker International Airport",
    "state": "Ohio",
    "woeid": "12521590"
  },
  {
    "city": "West Lebanon",
    "code": "LEB",
    "country": "United States",
    "icao": "KLEB",
    "lat": "43.6249",
    "lon": "-72.3087",
    "name": "Lebanon Municipal Airport",
    "state": "New Hampshire",
    "woeid": "12520604"
  },
  {
    "city": "Lexington",
    "code": "LEX",
    "country": "United States",
    "icao": "KLEX",
    "lat": "38.0384",
    "lon": "-84.5989",
    "name": "Blue Grass Field",
    "state": "Kentucky",
    "woeid": "24554866"
  },
  {
    "city": "Lafayette",
    "code": "LFT",
    "country": "United States",
    "icao": "KLFT",
    "lat": "30.2084",
    "lon": "-91.9935",
    "name": "Lafayette Regional Airport",
    "state": "Louisiana",
    "woeid": "12520518"
  },
  {
    "city": "Flushing",
    "code": "LGA",
    "country": "United States",
    "icao": "KLGA",
    "lat": "40.7731",
    "lon": "-73.8756",
    "name": "LaGuardia Airport",
    "state": "New York",
    "woeid": "12520509"
  },
  {
    "city": "Long Beach",
    "code": "LGB",
    "country": "United States",
    "icao": "",
    "lat": "33.8186",
    "lon": "-118.144",
    "name": "Long Beach Daugherty Field Airport",
    "state": "California",
    "woeid": "12520696"
  },
  {
    "city": "Lihue",
    "code": "LIH",
    "country": "United States",
    "icao": "PHLI",
    "lat": "21.9782",
    "lon": "-159.351",
    "name": "Lihue Airport",
    "state": "Hawaii",
    "woeid": "12520648"
  },
  {
    "city": "Little Rock",
    "code": "LIT",
    "country": "United States",
    "icao": "KLIT",
    "lat": "34.7278",
    "lon": "-92.219",
    "name": "Adams Field Airport",
    "state": "Arkansas",
    "woeid": "12518526"
  },
  {
    "city": "Seattle",
    "code": "LKE",
    "country": "United States",
    "icao": "",
    "lat": "47.6333",
    "lon": "-122.333",
    "name": "Lake Union Seaplane Base",
    "state": "Washington",
    "woeid": "12523163"
  },
  {
    "city": "Lake Minchumina",
    "code": "LMA",
    "country": "United States",
    "icao": "",
    "lat": "63.8825",
    "lon": "-152.313",
    "name": "Lake Minchumina",
    "state": "Alaska",
    "woeid": "2435032"
  },
  {
    "city": "Klamath Falls",
    "code": "LMT",
    "country": "United States",
    "icao": "KLMT",
    "lat": "42.1638",
    "lon": "-121.745",
    "name": "Klamath Falls International Airport",
    "state": "Oregon",
    "woeid": "12520483"
  },
  {
    "city": "Lincoln",
    "code": "LNK",
    "country": "United States",
    "icao": "KLNK",
    "lat": "40.8461",
    "lon": "-96.7543",
    "name": "Lincoln Municipal Airport",
    "state": "Nebraska",
    "woeid": "12520655"
  },
  {
    "city": "Lanai City",
    "code": "LNY",
    "country": "United States",
    "icao": "PHNY",
    "lat": "20.7909",
    "lon": "-156.951",
    "name": "Lanai Airport",
    "state": "Hawaii",
    "woeid": "12520557"
  },
  {
    "city": "Louisville",
    "code": "LOU",
    "country": "United States",
    "icao": "KLOU",
    "lat": "38.2228",
    "lon": "-85.6669",
    "name": "Bowman Field Airport",
    "state": "Kentucky",
    "woeid": "12518909"
  },
  {
    "city": "Lopez Island",
    "code": "LPS",
    "country": "United States",
    "icao": "",
    "lat": "48.4855",
    "lon": "-122.936",
    "name": "Lopez Island Airport",
    "state": "Washington",
    "woeid": "29387798"
  },
  {
    "city": "Laredo",
    "code": "LRD",
    "country": "United States",
    "icao": "KLRD",
    "lat": "27.5431",
    "lon": "-99.4555",
    "name": "Laredo International Airport",
    "state": "Texas",
    "woeid": "12520571"
  },
  {
    "city": "La Crosse",
    "code": "LSE",
    "country": "United States",
    "icao": "KLSE",
    "lat": "43.8751",
    "lon": "-91.2638",
    "name": "La Crosse Municipal Airport",
    "state": "Wisconsin",
    "woeid": "12520505"
  },
  {
    "city": "Webb",
    "code": "LUF",
    "country": "United States",
    "icao": "KLUF",
    "lat": "33.5355",
    "lon": "-112.372",
    "name": "Luke Air Force Base",
    "state": "Arizona",
    "woeid": "12520723"
  },
  {
    "city": "Kalaupapa",
    "code": "LUP",
    "country": "United States",
    "icao": "PHLU",
    "lat": "21.2077",
    "lon": "-156.976",
    "name": "Kalaupapa Airport",
    "state": "Hawaii",
    "woeid": "29387738"
  },
  {
    "city": "Point Hope",
    "code": "LUR",
    "country": "United States",
    "icao": "PALU",
    "lat": "68.8482",
    "lon": "-166.118",
    "name": "Cape Lisburne Long-Range Radar Station",
    "state": "Alaska",
    "woeid": "12519054"
  },
  {
    "city": "Lewisburg",
    "code": "LWB",
    "country": "United States",
    "icao": "KLWB",
    "lat": "37.8571",
    "lon": "-80.4044",
    "name": "Greenbrier Valley Airport",
    "state": "West Virginia",
    "woeid": "12519993"
  },
  {
    "city": "Lewiston",
    "code": "LWS",
    "country": "United States",
    "icao": "KLWS",
    "lat": "46.3776",
    "lon": "-117.011",
    "name": "Lewiston Nez Perce County Airport",
    "state": "Idaho",
    "woeid": "12520635"
  },
  {
    "city": "Lewistown",
    "code": "LWT",
    "country": "United States",
    "icao": "KLWT",
    "lat": "47.0552",
    "lon": "-109.46",
    "name": "Lewistown Municipal Airport",
    "state": "Montana",
    "woeid": "12520636"
  },
  {
    "city": "Lynchburg",
    "code": "LYH",
    "country": "United States",
    "icao": "KLYH",
    "lat": "37.3309",
    "lon": "-79.1944",
    "name": "Lynchburg Regional Airport",
    "state": "Virginia",
    "woeid": "12520730"
  },
  {
    "city": "Midland",
    "code": "MAF",
    "country": "United States",
    "icao": "KMAF",
    "lat": "31.9361",
    "lon": "-102.208",
    "name": "Midland International Airport",
    "state": "Texas",
    "woeid": "12520944"
  },
  {
    "city": "Mayaguez",
    "code": "MAZ",
    "country": "United States",
    "icao": "TJMZ",
    "lat": "18.2531",
    "lon": "-67.1489",
    "name": "Eugenio Maria de Hostos Airport",
    "state": "Puerto Rico",
    "woeid": "12515660"
  },
  {
    "city": "Manistee",
    "code": "MBL",
    "country": "United States",
    "icao": "KMBL",
    "lat": "44.2757",
    "lon": "-86.2558",
    "name": "Manistee County-Blacker Airport",
    "state": "Michigan",
    "woeid": "12520778"
  },
  {
    "city": "Freeland",
    "code": "MBS",
    "country": "United States",
    "icao": "KMBS",
    "lat": "43.5311",
    "lon": "-84.0933",
    "name": "MBS International Airport",
    "state": "Michigan",
    "woeid": "12522191"
  },
  {
    "city": "Merced",
    "code": "MCE",
    "country": "United States",
    "icao": "KMCE",
    "lat": "37.2892",
    "lon": "-120.515",
    "name": "Merced Municipal Airport-Macready Field",
    "state": "California",
    "woeid": "12520900"
  },
  {
    "city": "Mcgrath",
    "code": "MCG",
    "country": "United States",
    "icao": "PAMC",
    "lat": "62.9536",
    "lon": "-155.603",
    "name": "Mcgrath Airport",
    "state": "Alaska",
    "woeid": "12520858"
  },
  {
    "city": "Kansas City",
    "code": "MCI",
    "country": "United States",
    "icao": "KMCI",
    "lat": "39.2992",
    "lon": "-94.7171",
    "name": "Kansas City International Airport",
    "state": "Missouri",
    "woeid": "12520420"
  },
  {
    "city": "Mccook",
    "code": "MCK",
    "country": "United States",
    "icao": "KMCK",
    "lat": "40.2071",
    "lon": "-100.599",
    "name": "Mccook Municipal Airport",
    "state": "Nebraska",
    "woeid": "12520873"
  },
  {
    "city": "Macon",
    "code": "MCN",
    "country": "United States",
    "icao": "KMCN",
    "lat": "32.7023",
    "lon": "-83.65",
    "name": "Middle Georgia Regional Airport",
    "state": "Georgia",
    "woeid": "12520939"
  },
  {
    "city": "Orlando",
    "code": "MCO",
    "country": "United States",
    "icao": "KMCO",
    "lat": "28.4418",
    "lon": "-81.3115",
    "name": "Orlando International Airport",
    "state": "Florida",
    "woeid": "12521243"
  },
  {
    "city": "Clear Lake",
    "code": "MCW",
    "country": "United States",
    "icao": "KMCW",
    "lat": "43.153",
    "lon": "-93.3361",
    "name": "Mason City Municipal Airport",
    "state": "Iowa",
    "woeid": "12520832"
  },
  {
    "city": "Middletown",
    "code": "MDT",
    "country": "United States",
    "icao": "KMDT",
    "lat": "40.1962",
    "lon": "-76.7564",
    "name": "Harrisburg International Airport",
    "state": "Pennsylvania",
    "woeid": "12520098"
  },
  {
    "city": "Chicago",
    "code": "MDW",
    "country": "United States",
    "icao": "KMDW",
    "lat": "41.7875",
    "lon": "-87.7416",
    "name": "Chicago Midway International Airport",
    "state": "Illinois",
    "woeid": "12519178"
  },
  {
    "city": "Meridian",
    "code": "MEI",
    "country": "United States",
    "icao": "KMEI",
    "lat": "32.3334",
    "lon": "-88.7449",
    "name": "Key Field Airport",
    "state": "Mississippi",
    "woeid": "12520455"
  },
  {
    "city": "Memphis",
    "code": "MEM",
    "country": "United States",
    "icao": "KMEM",
    "lat": "35.047",
    "lon": "-89.9823",
    "name": "Memphis International Airport",
    "state": "Tennessee",
    "woeid": "12520895"
  },
  {
    "city": "Mcallen",
    "code": "MFE",
    "country": "United States",
    "icao": "KMFE",
    "lat": "26.1813",
    "lon": "-98.2404",
    "name": "Miller International Airport",
    "state": "Texas",
    "woeid": "12520953"
  },
  {
    "city": "Central Point",
    "code": "MFR",
    "country": "United States",
    "icao": "KMFR",
    "lat": "42.3691",
    "lon": "-122.874",
    "name": "Rogue Valley International-Medford Airport",
    "state": "Oregon",
    "woeid": "12520884"
  },
  {
    "city": "Montgomery",
    "code": "MGM",
    "country": "United States",
    "icao": "KMGM",
    "lat": "32.3049",
    "lon": "-86.3909",
    "name": "Montgomery Regional Airport",
    "state": "Alabama",
    "woeid": "12519409"
  },
  {
    "city": "Morgantown",
    "code": "MGW",
    "country": "United States",
    "icao": "KMGW",
    "lat": "39.6411",
    "lon": "-79.9241",
    "name": "Morgantown Municipal Airport-Hart Field",
    "state": "West Virginia",
    "woeid": "12521027"
  },
  {
    "city": "Manhattan",
    "code": "MHK",
    "country": "United States",
    "icao": "KMHK",
    "lat": "39.1368",
    "lon": "-96.6699",
    "name": "Manhattan Municipal Airport",
    "state": "Kansas",
    "woeid": "12520775"
  },
  {
    "city": "Mather",
    "code": "MHR",
    "country": "United States",
    "icao": "KMHR",
    "lat": "38.5646",
    "lon": "-121.297",
    "name": "Mather Airport",
    "state": "California",
    "woeid": "12521692"
  },
  {
    "city": "Manchester",
    "code": "MHT",
    "country": "United States",
    "icao": "KMHT",
    "lat": "42.9293",
    "lon": "-71.4386",
    "name": "Manchester-Boston Regional Airport",
    "state": "New Hampshire",
    "woeid": "12520772"
  },
  {
    "city": "Miami",
    "code": "MIA",
    "country": "United States",
    "icao": "KMIA",
    "lat": "25.7953",
    "lon": "-80.2727",
    "name": "Miami International Airport",
    "state": "Florida",
    "woeid": "12520923"
  },
  {
    "city": "Kansas City",
    "code": "MKC",
    "country": "United States",
    "icao": "KMKC",
    "lat": "39.1197",
    "lon": "-94.5906",
    "name": "Kansas City Downtown Airport",
    "state": "Missouri",
    "woeid": "12520419"
  },
  {
    "city": "Milwaukee",
    "code": "MKE",
    "country": "United States",
    "icao": "KMKE",
    "lat": "42.9471",
    "lon": "-87.9051",
    "name": "General Mitchell International Airport",
    "state": "Wisconsin",
    "woeid": "12519880"
  },
  {
    "city": "Muskegon",
    "code": "MKG",
    "country": "United States",
    "icao": "KMKG",
    "lat": "43.1646",
    "lon": "-86.2367",
    "name": "Muskegon County Airport",
    "state": "Michigan",
    "woeid": "12521071"
  },
  {
    "city": "Hoolehua",
    "code": "MKK",
    "country": "United States",
    "icao": "PHMK",
    "lat": "21.1557",
    "lon": "-157.094",
    "name": "Molokai Airport",
    "state": "Hawaii",
    "woeid": "12520984"
  },
  {
    "city": "Melbourne",
    "code": "MLB",
    "country": "United States",
    "icao": "KMLB",
    "lat": "28.0957",
    "lon": "-80.6282",
    "name": "Melbourne International Airport",
    "state": "Florida",
    "woeid": "12520889"
  },
  {
    "city": "Coal Valley",
    "code": "MLI",
    "country": "United States",
    "icao": "KMLI",
    "lat": "41.4539",
    "lon": "-90.5058",
    "name": "Quad City Airport",
    "state": "Illinois",
    "woeid": "12521505"
  },
  {
    "city": "Marshall",
    "code": "MLL",
    "country": "United States",
    "icao": "",
    "lat": "61.8833",
    "lon": "-162.067",
    "name": "Marshall",
    "state": "Alaska",
    "woeid": "12799653"
  },
  {
    "city": "Monroe",
    "code": "MLU",
    "country": "United States",
    "icao": "KMLU",
    "lat": "32.5099",
    "lon": "-92.044",
    "name": "Monroe Regional Airport",
    "state": "Louisiana",
    "woeid": "12520996"
  },
  {
    "city": "Manley Hot Springs",
    "code": "MLY",
    "country": "United States",
    "icao": "PAML",
    "lat": "64.9812",
    "lon": "-150.637",
    "name": "Manley Hot Springs",
    "state": "Alaska",
    "woeid": "2444846"
  },
  {
    "city": "Mammoth Lakes",
    "code": "MMH",
    "country": "United States",
    "icao": "KMMH",
    "lat": "37.6288",
    "lon": "-118.844",
    "name": "Mammoth June Lakes Airport",
    "state": "California",
    "woeid": "12520768"
  },
  {
    "city": "Minto",
    "code": "MNT",
    "country": "United States",
    "icao": "",
    "lat": "65.1987",
    "lon": "-149.53",
    "name": "Minto",
    "state": "Alaska",
    "woeid": "2452225"
  },
  {
    "city": "Mobile",
    "code": "MOB",
    "country": "United States",
    "icao": "KMOB",
    "lat": "30.6775",
    "lon": "-88.243",
    "name": "Mobile Regional Airport",
    "state": "Alabama",
    "woeid": "12518752"
  },
  {
    "city": "Modesto",
    "code": "MOD",
    "country": "United States",
    "icao": "KMOD",
    "lat": "37.6319",
    "lon": "-120.959",
    "name": "Modesto City County Airport-Harry Sham Field",
    "state": "California",
    "woeid": "12520978"
  },
  {
    "city": "Minot",
    "code": "MOT",
    "country": "United States",
    "icao": "KMOT",
    "lat": "48.2554",
    "lon": "-101.291",
    "name": "Minot International Airport",
    "state": "North Dakota",
    "woeid": "12520968"
  },
  {
    "city": "Mountain Village",
    "code": "MOU",
    "country": "United States",
    "icao": "PAMO",
    "lat": "62.0833",
    "lon": "-163.733",
    "name": "Mountain Village",
    "state": "Alaska",
    "woeid": "12799686"
  },
  {
    "city": "Marquette",
    "code": "MQT",
    "country": "United States",
    "icao": "KSAW",
    "lat": "46.3501",
    "lon": "-87.3871",
    "name": "Sawyer International Airport",
    "state": "Michigan",
    "woeid": "12520411"
  },
  {
    "city": "Monterey",
    "code": "MRY",
    "country": "United States",
    "icao": "KMRY",
    "lat": "36.5872",
    "lon": "-121.851",
    "name": "Monterey Peninsula Airport",
    "state": "California",
    "woeid": "12521001"
  },
  {
    "city": "Muscle Shoals",
    "code": "MSL",
    "country": "United States",
    "icao": "KMSL",
    "lat": "34.7439",
    "lon": "-87.6185",
    "name": "Muscle Shoals Regional Airport",
    "state": "Alabama",
    "woeid": "12521070"
  },
  {
    "city": "Madison",
    "code": "MSN",
    "country": "United States",
    "icao": "KMSN",
    "lat": "43.1351",
    "lon": "-89.3465",
    "name": "Dane County Regional Airport-Truax Field",
    "state": "Wisconsin",
    "woeid": "12519407"
  },
  {
    "city": "Missoula",
    "code": "MSO",
    "country": "United States",
    "icao": "KMSO",
    "lat": "46.9192",
    "lon": "-114.084",
    "name": "Missoula International Airport",
    "state": "Montana",
    "woeid": "12520974"
  },
  {
    "city": "St. Paul",
    "code": "MSP",
    "country": "United States",
    "icao": "KMSP",
    "lat": "44.8793",
    "lon": "-93.1987",
    "name": "Minneapolis St Paul International Airport",
    "state": "Minnesota",
    "woeid": "12520966"
  },
  {
    "city": "Massena",
    "code": "MSS",
    "country": "United States",
    "icao": "KMSS",
    "lat": "44.9326",
    "lon": "-74.8535",
    "name": "Massena International Airport",
    "state": "New York",
    "woeid": "12521580"
  },
  {
    "city": "Kenner",
    "code": "MSY",
    "country": "United States",
    "icao": "KMSY",
    "lat": "29.983",
    "lon": "-90.2569",
    "name": "New Orleans International Airport",
    "state": "Louisiana",
    "woeid": "12521116"
  },
  {
    "city": "Montrose",
    "code": "MTJ",
    "country": "United States",
    "icao": "KMTJ",
    "lat": "38.5003",
    "lon": "-107.899",
    "name": "Montrose Regional Airport",
    "state": "Colorado",
    "woeid": "12521012"
  },
  {
    "city": "Metlakatla",
    "code": "MTM",
    "country": "United States",
    "icao": "",
    "lat": "55.1333",
    "lon": "-131.583",
    "name": "Metlakatla Sea Plane Base",
    "state": "Alaska",
    "woeid": "2449920"
  },
  {
    "city": "Kamuela",
    "code": "MUE",
    "country": "United States",
    "icao": "PHMU",
    "lat": "19.9983",
    "lon": "-155.675",
    "name": "Waimea Kohala Airport",
    "state": "Hawaii",
    "woeid": "12522305"
  },
  {
    "city": "Vineyard Haven",
    "code": "MVY",
    "country": "United States",
    "icao": "KMVY",
    "lat": "41.3895",
    "lon": "-70.6112",
    "name": "Marthas Vineyard Airport",
    "state": "Massachusetts",
    "woeid": "12520822"
  },
  {
    "city": "Marion",
    "code": "MWA",
    "country": "United States",
    "icao": "KMWA",
    "lat": "37.7467",
    "lon": "-89.0104",
    "name": "Williamson County Regional Airport",
    "state": "Illinois",
    "woeid": "12522462"
  },
  {
    "city": "Mccall",
    "code": "MYL",
    "country": "United States",
    "icao": "KMYL",
    "lat": "44.8968",
    "lon": "-116.096",
    "name": "Mccall Airport",
    "state": "Idaho",
    "woeid": "12520848"
  },
  {
    "city": "Myrtle Beach",
    "code": "MYR",
    "country": "United States",
    "icao": "KMYR",
    "lat": "33.6821",
    "lon": "-78.9228",
    "name": "Myrtle Beach International Airport",
    "state": "South Carolina",
    "woeid": "12521074"
  },
  {
    "city": "Mekoryuk",
    "code": "MYU",
    "country": "United States",
    "icao": "PAMY",
    "lat": "60.3906",
    "lon": "-166.191",
    "name": "Mekoryuk",
    "state": "Alaska",
    "woeid": "2449074"
  },
  {
    "city": "New Chenega",
    "code": "NCN",
    "country": "United States",
    "icao": "",
    "lat": "60.0784",
    "lon": "-148.017",
    "name": "Chenega",
    "state": "Alaska",
    "woeid": "2378864"
  },
  {
    "city": "Nikolai",
    "code": "NIB",
    "country": "United States",
    "icao": "",
    "lat": "45.9837",
    "lon": "-108.028",
    "name": "Nikolai",
    "state": "Alaska",
    "woeid": "2459969"
  },
  {
    "city": "Jacksonville",
    "code": "NIP",
    "country": "United States",
    "icao": "KNIP",
    "lat": "30.2342",
    "lon": "-81.6753",
    "name": "Jacksonville Naval Air Station",
    "state": "Florida",
    "woeid": "12520342"
  },
  {
    "city": "Honolulu",
    "code": "NIU",
    "country": "United States",
    "icao": "",
    "lat": "21.3358",
    "lon": "-157.919",
    "name": "Honolulu International Airport",
    "state": "Hawaii",
    "woeid": "12520216"
  },
  {
    "city": "Naukiti",
    "code": "NKI",
    "country": "United States",
    "icao": "",
    "lat": "55.8556",
    "lon": "-133.183",
    "name": "Naukiti Airport",
    "state": "Alaska",
    "woeid": "2347560"
  },
  {
    "city": "Nelson Lagoon",
    "code": "NLG",
    "country": "United States",
    "icao": "",
    "lat": "56.0167",
    "lon": "-161.15",
    "name": "",
    "state": "Alaska",
    "woeid": "23417017"
  },
  {
    "city": "Nightmute",
    "code": "NME",
    "country": "United States",
    "icao": "",
    "lat": "60.4723",
    "lon": "-164.699",
    "name": "Nightmute Airport",
    "state": "Alaska",
    "woeid": "2459959"
  },
  {
    "city": "Nondalton",
    "code": "NNL",
    "country": "United States",
    "icao": "",
    "lat": "59.9717",
    "lon": "-154.847",
    "name": "",
    "state": "Alaska",
    "woeid": "2460300"
  },
  {
    "city": "Nuiqsut",
    "code": "NUI",
    "country": "United States",
    "icao": "KNUI",
    "lat": "70.2167",
    "lon": "-150.917",
    "name": "Nuiqsut",
    "state": "Alaska",
    "woeid": "12799827"
  },
  {
    "city": "Nulato",
    "code": "NUL",
    "country": "United States",
    "icao": "PANU",
    "lat": "64.7134",
    "lon": "-158.077",
    "name": "Nulato Airport",
    "state": "Alaska",
    "woeid": "29388568"
  },
  {
    "city": "Nunapitchuk",
    "code": "NUP",
    "country": "United States",
    "icao": "",
    "lat": "60.897",
    "lon": "-162.453",
    "name": "Alaska",
    "state": "Alaska",
    "woeid": "2347560"
  },
  {
    "city": "Norwood Young America",
    "code": "NYA",
    "country": "United States",
    "icao": "",
    "lat": "44.7718",
    "lon": "-93.9263",
    "name": "",
    "state": "Minnesota",
    "woeid": "23417628"
  },
  {
    "city": "Richlands",
    "code": "OAJ",
    "country": "United States",
    "icao": "KOAJ",
    "lat": "34.8307",
    "lon": "-77.6053",
    "name": "Albert J Ellis Airport",
    "state": "North Carolina",
    "woeid": "12518557"
  },
  {
    "city": "Oakland",
    "code": "OAK",
    "country": "United States",
    "icao": "KOAK",
    "lat": "37.7158",
    "lon": "-122.209",
    "name": "Oakland International Airport",
    "state": "California",
    "woeid": "12520917"
  },
  {
    "city": "Kobuk",
    "code": "OBU",
    "country": "United States",
    "icao": "",
    "lat": "66.9148",
    "lon": "-156.878",
    "name": "Kobuk Airport",
    "state": "Alaska",
    "woeid": "12524644"
  },
  {
    "city": "Oak Harbor",
    "code": "ODW",
    "country": "United States",
    "icao": "KOKH",
    "lat": "48.2517",
    "lon": "-122.68",
    "name": "Oak Harbor Airpark",
    "state": "Washington",
    "woeid": "12521178"
  },
  {
    "city": "Kahului",
    "code": "OGG",
    "country": "United States",
    "icao": "PHOG",
    "lat": "20.8926",
    "lon": "-156.441",
    "name": "Kahului Airport",
    "state": "Hawaii",
    "woeid": "12520412"
  },
  {
    "city": "Ogdensburg",
    "code": "OGS",
    "country": "United States",
    "icao": "KOGS",
    "lat": "44.6782",
    "lon": "-75.4765",
    "name": "Ogdensburg International Airport",
    "state": "New York",
    "woeid": "12521199"
  },
  {
    "city": "Oklahoma City",
    "code": "OKC",
    "country": "United States",
    "icao": "KOKC",
    "lat": "35.3981",
    "lon": "-97.5974",
    "name": "Will Rogers World Airport",
    "state": "Oklahoma",
    "woeid": "12522444"
  },
  {
    "city": "Wolf Point",
    "code": "OLF",
    "country": "United States",
    "icao": "KOLF",
    "lat": "48.0964",
    "lon": "-105.575",
    "name": "L. M. Clayton Airport",
    "state": "Montana",
    "woeid": "29387871"
  },
  {
    "city": "Old Harbor",
    "code": "OLH",
    "country": "United States",
    "icao": "",
    "lat": "62.8903",
    "lon": "-149.054",
    "name": "Alaska",
    "state": "Alaska",
    "woeid": "2347560"
  },
  {
    "city": "Omaha",
    "code": "OMA",
    "country": "United States",
    "icao": "KOMA",
    "lat": "41.3",
    "lon": "-95.8998",
    "name": "Eppley Airfield",
    "state": "Nebraska",
    "woeid": "12519653"
  },
  {
    "city": "Nome",
    "code": "OME",
    "country": "United States",
    "icao": "PAOM",
    "lat": "64.5125",
    "lon": "-165.445",
    "name": "Nome Airport",
    "state": "Alaska",
    "woeid": "12521145"
  },
  {
    "city": "O'neill",
    "code": "ONL",
    "country": "United States",
    "icao": "KONL",
    "lat": "42.4655",
    "lon": "-98.6866",
    "name": "The Oneill Municipal Airport",
    "state": "Nebraska",
    "woeid": "12522114"
  },
  {
    "city": "Ontario",
    "code": "ONT",
    "country": "United States",
    "icao": "KONT",
    "lat": "34.062",
    "lon": "-117.594",
    "name": "Ontario International Airport",
    "state": "California",
    "woeid": "12521228"
  },
  {
    "city": "Toksook Bay",
    "code": "OOK",
    "country": "United States",
    "icao": "PAOO",
    "lat": "60.5334",
    "lon": "-165.114",
    "name": "Toksook Bay",
    "state": "Alaska",
    "woeid": "2506880"
  },
  {
    "city": "Opa-Locka",
    "code": "OPF",
    "country": "United States",
    "icao": "KOPF",
    "lat": "25.9023",
    "lon": "-80.2677",
    "name": "Opa Locka Airport",
    "state": "Florida",
    "woeid": "12521232"
  },
  {
    "city": "Chicago",
    "code": "ORD",
    "country": "United States",
    "icao": "KORD",
    "lat": "41.9796",
    "lon": "-87.8825",
    "name": "Chicago O'Hare International Airport",
    "state": "Illinois",
    "woeid": "12521200"
  },
  {
    "city": "Norfolk",
    "code": "ORF",
    "country": "United States",
    "icao": "KORF",
    "lat": "36.8977",
    "lon": "-76.2154",
    "name": "Norfolk International Airport",
    "state": "Virginia",
    "woeid": "12521146"
  },
  {
    "city": "Worcester",
    "code": "ORH",
    "country": "United States",
    "icao": "KORH",
    "lat": "42.2699",
    "lon": "-71.8706",
    "name": "Worcester Municipal Airport",
    "state": "Massachusetts",
    "woeid": "12522514"
  },
  {
    "city": "Port Lions",
    "code": "ORI",
    "country": "United States",
    "icao": "",
    "lat": "-7.6833",
    "lon": "-39.3667",
    "name": "",
    "state": "Alaska",
    "woeid": "23510508"
  },
  {
    "city": "Noorvik",
    "code": "ORV",
    "country": "United States",
    "icao": "",
    "lat": "66.8333",
    "lon": "-161.033",
    "name": "Curtis Memorial",
    "state": "Alaska",
    "woeid": "12799802"
  },
  {
    "city": "North Bend",
    "code": "OTH",
    "country": "United States",
    "icao": "KOTH",
    "lat": "43.4141",
    "lon": "-124.244",
    "name": "North Bend Municipal Airport",
    "state": "Oregon",
    "woeid": "12521150"
  },
  {
    "city": "Kotzebue",
    "code": "OTZ",
    "country": "United States",
    "icao": "PAOT",
    "lat": "66.8893",
    "lon": "-162.61",
    "name": "Ralph Wien Memorial Airport",
    "state": "Alaska",
    "woeid": "12521522"
  },
  {
    "city": "Boscobel",
    "code": "OVS",
    "country": "United States",
    "icao": "KOVS",
    "lat": "43.1537",
    "lon": "-90.6764",
    "name": "Boscobel Airport",
    "state": "Wisconsin",
    "woeid": "12518898"
  },
  {
    "city": "Oxnard",
    "code": "OXR",
    "country": "United States",
    "icao": "KOXR",
    "lat": "34.1984",
    "lon": "-119.206",
    "name": "Oxnard Airport",
    "state": "California",
    "woeid": "12521271"
  },
  {
    "city": "West Paducah",
    "code": "PAH",
    "country": "United States",
    "icao": "KPAH",
    "lat": "37.0612",
    "lon": "-88.7672",
    "name": "Barkley Regional Airport",
    "state": "Kentucky",
    "woeid": "12518741"
  },
  {
    "city": "Plattsburgh",
    "code": "PBG",
    "country": "United States",
    "icao": "KPBG",
    "lat": "44.6508",
    "lon": "-73.4683",
    "name": "Plattsburgh Air Force Base",
    "state": "New York",
    "woeid": "12521414"
  },
  {
    "city": "West Palm Beach",
    "code": "PBI",
    "country": "United States",
    "icao": "KPBI",
    "lat": "26.6909",
    "lon": "-80.0889",
    "name": "Palm Beach International Airport",
    "state": "Florida",
    "woeid": "12521288"
  },
  {
    "city": "Painter Creek",
    "code": "PCE",
    "country": "United States",
    "icao": "",
    "lat": "57.093",
    "lon": "-157.258",
    "name": "Painter Creek",
    "state": "Alaska",
    "woeid": "12799701"
  },
  {
    "city": "Pedro Bay",
    "code": "PDB",
    "country": "United States",
    "icao": "",
    "lat": "59.7868",
    "lon": "-154.105",
    "name": "Pedro Bay",
    "state": "Alaska",
    "woeid": "2469932"
  },
  {
    "city": "Pendleton",
    "code": "PDT",
    "country": "United States",
    "icao": "KPDT",
    "lat": "45.6893",
    "lon": "-118.839",
    "name": "Eastern Oregon Regional Airport",
    "state": "Oregon",
    "woeid": "12521330"
  },
  {
    "city": "Portland",
    "code": "PDX",
    "country": "United States",
    "icao": "KPDX",
    "lat": "45.5867",
    "lon": "-122.587",
    "name": "Portland International Airport",
    "state": "Oregon",
    "woeid": "12521453"
  },
  {
    "city": "Pelican",
    "code": "PEC",
    "country": "United States",
    "icao": "",
    "lat": "57.95",
    "lon": "-136.233",
    "name": "Pelican Sea Plane Base",
    "state": "Alaska",
    "woeid": "2470028"
  },
  {
    "city": "Panama City",
    "code": "PFN",
    "country": "United States",
    "icao": "KPFN",
    "lat": "30.2071",
    "lon": "-85.6829",
    "name": "Panama City Bay County Airport",
    "state": "Florida",
    "woeid": "12521294"
  },
  {
    "city": "Page",
    "code": "PGA",
    "country": "United States",
    "icao": "KPGA",
    "lat": "36.9243",
    "lon": "-111.451",
    "name": "Page Municipal Airport",
    "state": "Arizona",
    "woeid": "12521277"
  },
  {
    "city": "Port Graham",
    "code": "PGM",
    "country": "United States",
    "icao": "",
    "lat": "59.35",
    "lon": "-151.833",
    "name": "Port Graham",
    "state": "Alaska",
    "woeid": "12799662"
  },
  {
    "city": "Greenville",
    "code": "PGV",
    "country": "United States",
    "icao": "KPGV",
    "lat": "35.6336",
    "lon": "-77.3808",
    "name": "Pitt Greenville Airport",
    "state": "North Carolina",
    "woeid": "12521400"
  },
  {
    "city": "Newport News",
    "code": "PHF",
    "country": "United States",
    "icao": "KPHF",
    "lat": "37.1306",
    "lon": "-76.5026",
    "name": "Newport News-Williamsburg International Airport",
    "state": "Virginia",
    "woeid": "12521311"
  },
  {
    "city": "Philadelphia",
    "code": "PHL",
    "country": "United States",
    "icao": "KPHL",
    "lat": "39.8768",
    "lon": "-75.2419",
    "name": "Philadelphia International Airport",
    "state": "Pennsylvania",
    "woeid": "12521360"
  },
  {
    "city": "Point Hope",
    "code": "PHO",
    "country": "United States",
    "icao": "PAPO",
    "lat": "68.3494",
    "lon": "-166.797",
    "name": "Point Hope Airport",
    "state": "Alaska",
    "woeid": "12521425"
  },
  {
    "city": "Phoenix",
    "code": "PHX",
    "country": "United States",
    "icao": "KPHX",
    "lat": "33.4376",
    "lon": "-112.03",
    "name": "Sky Harbor International Airport",
    "state": "Arizona",
    "woeid": "12521872"
  },
  {
    "city": "Peoria",
    "code": "PIA",
    "country": "United States",
    "icao": "KPIA",
    "lat": "40.6663",
    "lon": "-89.6909",
    "name": "Greater Peoria Regional Airport",
    "state": "Illinois",
    "woeid": "12519982"
  },
  {
    "city": "Moselle",
    "code": "PIB",
    "country": "United States",
    "icao": "KPIB",
    "lat": "31.4671",
    "lon": "-89.3333",
    "name": "Pine Belt Regional Airport",
    "state": "Mississippi",
    "woeid": "12521381"
  },
  {
    "city": "Clearwater",
    "code": "PIE",
    "country": "United States",
    "icao": "KPIE",
    "lat": "27.9065",
    "lon": "-82.6924",
    "name": "St. Petersburg-Clearwater International Airport",
    "state": "Florida",
    "woeid": "12521978"
  },
  {
    "city": "Pocatello",
    "code": "PIH",
    "country": "United States",
    "icao": "KPIH",
    "lat": "42.9056",
    "lon": "-112.588",
    "name": "Pocatello Municipal Airport",
    "state": "Idaho",
    "woeid": "12521423"
  },
  {
    "city": "Pilot Point",
    "code": "PIP",
    "country": "United States",
    "icao": "",
    "lat": "57.5631",
    "lon": "-157.558",
    "name": "Pilot Point Airport",
    "state": "Alaska",
    "woeid": "12523201"
  },
  {
    "city": "Pierre",
    "code": "PIR",
    "country": "United States",
    "icao": "KPIR",
    "lat": "44.3801",
    "lon": "-100.293",
    "name": "Pierre Municipal Airport",
    "state": "South Dakota",
    "woeid": "12521375"
  },
  {
    "city": "Coraopolis",
    "code": "PIT",
    "country": "United States",
    "icao": "KPIT",
    "lat": "40.4914",
    "lon": "-80.2328",
    "name": "Pittsburgh International Airport",
    "state": "Pennsylvania",
    "woeid": "12519983"
  },
  {
    "city": "Point Lay",
    "code": "PIZ",
    "country": "United States",
    "icao": "PPIZ",
    "lat": "69.7333",
    "lon": "-163.017",
    "name": "Dew Station",
    "state": "Alaska",
    "woeid": "2474589"
  },
  {
    "city": "Napaskiak",
    "code": "PKA",
    "country": "United States",
    "icao": "",
    "lat": "60.7049",
    "lon": "-161.766",
    "name": "Alaska",
    "state": "Alaska",
    "woeid": "2347560"
  },
  {
    "city": "Williamstown",
    "code": "PKB",
    "country": "United States",
    "icao": "KPKB",
    "lat": "39.3462",
    "lon": "-81.4345",
    "name": "Wood County Airport-Gill Robb Wilson Field",
    "state": "West Virginia",
    "woeid": "12522506"
  },
  {
    "city": "Pellston",
    "code": "PLN",
    "country": "United States",
    "icao": "KPLN",
    "lat": "45.571",
    "lon": "-84.7857",
    "name": "Pellston Regional Airport",
    "state": "Michigan",
    "woeid": "12521327"
  },
  {
    "city": "Palmdale",
    "code": "PMD",
    "country": "United States",
    "icao": "KPMD",
    "lat": "34.6294",
    "lon": "-118.084",
    "name": "Air Force Plant Nr 42 Palmdale",
    "state": "California",
    "woeid": "12521290"
  },
  {
    "city": "Port Moller",
    "code": "PML",
    "country": "United States",
    "icao": "",
    "lat": "55.9833",
    "lon": "-160.533",
    "name": "",
    "state": "Alaska",
    "woeid": "2475435"
  },
  {
    "city": "Pensacola",
    "code": "PNS",
    "country": "United States",
    "icao": "KPNS",
    "lat": "30.4761",
    "lon": "-87.1941",
    "name": "Pensacola Regional Airport",
    "state": "Florida",
    "woeid": "12521335"
  },
  {
    "city": "Pago Pago",
    "code": "PPG",
    "country": "United States",
    "icao": "NSTU",
    "lat": "-14.3242",
    "lon": "-170.706",
    "name": "Pago Pago International Airport",
    "state": "American Samoa",
    "woeid": "12523054"
  },
  {
    "city": "Port Protection",
    "code": "PPV",
    "country": "United States",
    "icao": "",
    "lat": "62.8903",
    "lon": "-149.054",
    "name": "Alaska",
    "state": "Alaska",
    "woeid": "2347560"
  },
  {
    "city": "Presque Isle",
    "code": "PQI",
    "country": "United States",
    "icao": "KPQI",
    "lat": "46.6921",
    "lon": "-68.0447",
    "name": "Northern Maine Regional Airport",
    "state": "Maine",
    "woeid": "12521164"
  },
  {
    "city": "Pilot Station",
    "code": "PQS",
    "country": "United States",
    "icao": "",
    "lat": "61.9362",
    "lon": "-162.882",
    "name": "Pilot Station",
    "state": "Alaska",
    "woeid": "2471844"
  },
  {
    "city": "Prescott",
    "code": "PRC",
    "country": "United States",
    "icao": "KPRC",
    "lat": "34.6492",
    "lon": "-112.428",
    "name": "Ernest A Love Field Airport",
    "state": "Arizona",
    "woeid": "12519656"
  },
  {
    "city": "Pasco",
    "code": "PSC",
    "country": "United States",
    "icao": "KPSC",
    "lat": "46.2592",
    "lon": "-119.117",
    "name": "Tri Cities Airport",
    "state": "Washington",
    "woeid": "12522188"
  },
  {
    "city": "Coto Laurel",
    "code": "PSE",
    "country": "United States",
    "icao": "TJPS",
    "lat": "18.0116",
    "lon": "-66.5664",
    "name": "Mercedita Airport",
    "state": "Puerto Rico",
    "woeid": "12515663"
  },
  {
    "city": "Petersburg",
    "code": "PSG",
    "country": "United States",
    "icao": "PAPG",
    "lat": "56.8067",
    "lon": "-132.933",
    "name": "Petersburg James A Johnson Airport",
    "state": "Alaska",
    "woeid": "12521355"
  },
  {
    "city": "Palm Springs",
    "code": "PSP",
    "country": "United States",
    "icao": "KPSP",
    "lat": "33.8227",
    "lon": "-116.509",
    "name": "Palm Springs International Airport",
    "state": "California",
    "woeid": "12521289"
  },
  {
    "city": "Port Alsworth",
    "code": "PTA",
    "country": "United States",
    "icao": "",
    "lat": "60.3956",
    "lon": "-154.494",
    "name": "Port Alsworth",
    "state": "Alaska",
    "woeid": "2475311"
  },
  {
    "city": "Port Heiden",
    "code": "PTH",
    "country": "United States",
    "icao": "PAPH",
    "lat": "56.9667",
    "lon": "-158.633",
    "name": "Port Heiden Airport",
    "state": "Alaska",
    "woeid": "2475388"
  },
  {
    "city": "Platinum",
    "code": "PTU",
    "country": "United States",
    "icao": "PAPM",
    "lat": "58.9216",
    "lon": "-161.727",
    "name": "Platinum",
    "state": "Alaska",
    "woeid": "2473568"
  },
  {
    "city": "Pueblo",
    "code": "PUB",
    "country": "United States",
    "icao": "KPUB",
    "lat": "38.2836",
    "lon": "-104.496",
    "name": "Pueblo Memorial Airport",
    "state": "Colorado",
    "woeid": "12521494"
  },
  {
    "city": "Pullman",
    "code": "PUW",
    "country": "United States",
    "icao": "KPUW",
    "lat": "46.743",
    "lon": "-117.119",
    "name": "Pullman-Moscow Regional Airport",
    "state": "Washington",
    "woeid": "12521496"
  },
  {
    "city": "Provincetown",
    "code": "PVC",
    "country": "United States",
    "icao": "KPVC",
    "lat": "42.0771",
    "lon": "-70.2169",
    "name": "Provincetown Municipal Airport",
    "state": "Massachusetts",
    "woeid": "12521490"
  },
  {
    "city": "Warwick",
    "code": "PVD",
    "country": "United States",
    "icao": "KPVD",
    "lat": "41.723",
    "lon": "-71.4399",
    "name": "Theodore Francis Green State Airport",
    "state": "Rhode Island",
    "woeid": "12522119"
  },
  {
    "city": "Wheeling",
    "code": "PWK",
    "country": "United States",
    "icao": "KPWK",
    "lat": "42.1162",
    "lon": "-87.8987",
    "name": "Pal Waukee Airport",
    "state": "Illinois",
    "woeid": "12521282"
  },
  {
    "city": "Portland",
    "code": "PWM",
    "country": "United States",
    "icao": "KPWM",
    "lat": "43.6475",
    "lon": "-70.3103",
    "name": "Jetport International Airport",
    "state": "Maine",
    "woeid": "12520368"
  },
  {
    "city": "Qulin",
    "code": "QUL",
    "country": "United States",
    "icao": "",
    "lat": "36.5922",
    "lon": "-90.2465",
    "name": "",
    "state": "Missouri",
    "woeid": "2477964"
  },
  {
    "city": "Rapid City",
    "code": "RAP",
    "country": "United States",
    "icao": "KRAP",
    "lat": "44.037",
    "lon": "-103.06",
    "name": "Rapid City Regional Airport",
    "state": "South Dakota",
    "woeid": "12521530"
  },
  {
    "city": "Brooks Lodge",
    "code": "RBH",
    "country": "United States",
    "icao": "",
    "lat": "64.7381",
    "lon": "-155.489",
    "name": "Brooks Lodge",
    "state": "Alaska",
    "woeid": "2347560"
  },
  {
    "city": "Roundup",
    "code": "RBX",
    "country": "United States",
    "icao": "",
    "lat": "46.4717",
    "lon": "-108.55",
    "name": "Roundup Airport",
    "state": "Montana",
    "woeid": "12521664"
  },
  {
    "city": "Ruby",
    "code": "RBY",
    "country": "United States",
    "icao": "PARY",
    "lat": "64.7381",
    "lon": "-155.489",
    "name": "Ruby Airport",
    "state": "Alaska",
    "woeid": "2485593"
  },
  {
    "city": "Friday Harbor",
    "code": "RCE",
    "country": "United States",
    "icao": "",
    "lat": "48.6126",
    "lon": "-123.14",
    "name": "Roche Harbor Airport",
    "state": "Washington",
    "woeid": "12521623"
  },
  {
    "city": "Cinder River",
    "code": "RCP",
    "country": "United States",
    "icao": "",
    "lat": "51.5257",
    "lon": "-0.14499",
    "name": "",
    "state": "Alaska",
    "woeid": "2347560"
  },
  {
    "city": "Red Dog",
    "code": "RDB",
    "country": "United States",
    "icao": "PADG",
    "lat": "67.75",
    "lon": "-163.667",
    "name": "Red Dog",
    "state": "Alaska",
    "woeid": "12799789"
  },
  {
    "city": "Redding",
    "code": "RDD",
    "country": "United States",
    "icao": "KRDD",
    "lat": "40.5056",
    "lon": "-122.302",
    "name": "Redding Municipal Airport",
    "state": "California",
    "woeid": "12521548"
  },
  {
    "city": "Redmond",
    "code": "RDM",
    "country": "United States",
    "icao": "KRDM",
    "lat": "44.2533",
    "lon": "-121.162",
    "name": "Roberts Field Airport",
    "state": "Oregon",
    "woeid": "12521617"
  },
  {
    "city": "Raleigh/Durham",
    "code": "RDU",
    "country": "United States",
    "icao": "KRDU",
    "lat": "35.8729",
    "lon": "-78.7923",
    "name": "Durham International Airport",
    "state": "North Carolina",
    "woeid": "12519551"
  },
  {
    "city": "Red Devil",
    "code": "RDV",
    "country": "United States",
    "icao": "",
    "lat": "61.7645",
    "lon": "-157.312",
    "name": "Red Devil",
    "state": "Alaska",
    "woeid": "2479276"
  },
  {
    "city": "Rockford",
    "code": "RFD",
    "country": "United States",
    "icao": "KRFD",
    "lat": "42.2035",
    "lon": "-89.0955",
    "name": "Greater Rockford Airport",
    "state": "Illinois",
    "woeid": "12519986"
  },
  {
    "city": "Rhinelander",
    "code": "RHI",
    "country": "United States",
    "icao": "KRHI",
    "lat": "45.626",
    "lon": "-89.4626",
    "name": "Rhinelander-Oneida County Airport",
    "state": "Wisconsin",
    "woeid": "12521570"
  },
  {
    "city": "Richmond",
    "code": "RIC",
    "country": "United States",
    "icao": "KRIC",
    "lat": "37.5108",
    "lon": "-77.3332",
    "name": "Richmond International Airport",
    "state": "Virginia",
    "woeid": "12518996"
  },
  {
    "city": "Alessandro",
    "code": "RIV",
    "country": "United States",
    "icao": "KRIV",
    "lat": "33.8806",
    "lon": "-117.259",
    "name": "March Air Force Base",
    "state": "California",
    "woeid": "12520791"
  },
  {
    "city": "Riverton",
    "code": "RIW",
    "country": "United States",
    "icao": "KRIW",
    "lat": "43.0611",
    "lon": "-108.458",
    "name": "Riverton Regional Airport",
    "state": "Wyoming",
    "woeid": "12521603"
  },
  {
    "city": "Owls Head",
    "code": "RKD",
    "country": "United States",
    "icao": "KRKD",
    "lat": "44.0612",
    "lon": "-69.0943",
    "name": "Knox County Regional Airport",
    "state": "Maine",
    "woeid": "12520489"
  },
  {
    "city": "Rock Springs",
    "code": "RKS",
    "country": "United States",
    "icao": "KRKS",
    "lat": "41.5988",
    "lon": "-109.072",
    "name": "Rock Springs-Sweetwater County Airport",
    "state": "Wyoming",
    "woeid": "12521630"
  },
  {
    "city": "Rampart",
    "code": "RMP",
    "country": "United States",
    "icao": "",
    "lat": "65.5063",
    "lon": "-150.169",
    "name": "Rampart",
    "state": "Alaska",
    "woeid": "2478448"
  },
  {
    "city": "Reno",
    "code": "RNO",
    "country": "United States",
    "icao": "KRNO",
    "lat": "39.5064",
    "lon": "-119.776",
    "name": "Reno-Tahoe International Airport",
    "state": "Nevada",
    "woeid": "12519047"
  },
  {
    "city": "Roanoke",
    "code": "ROA",
    "country": "United States",
    "icao": "KROA",
    "lat": "37.3203",
    "lon": "-79.9688",
    "name": "Roanoke Regional Airport-Woodrum Field",
    "state": "Virginia",
    "woeid": "12521606"
  },
  {
    "city": "Rochester",
    "code": "ROC",
    "country": "United States",
    "icao": "KROC",
    "lat": "43.1309",
    "lon": "-77.6697",
    "name": "Greater Rochester International Airport",
    "state": "New York",
    "woeid": "12519985"
  },
  {
    "city": "Rota",
    "code": "ROP",
    "country": "United States",
    "icao": "PGRO",
    "lat": "14.1667",
    "lon": "145.25",
    "name": "Rota International Airport",
    "state": "Northern Mariana Islands",
    "woeid": "12523212"
  },
  {
    "city": "Roswell",
    "code": "ROW",
    "country": "United States",
    "icao": "KROW",
    "lat": "33.3071",
    "lon": "-104.519",
    "name": "Roswell Industrial Air Center",
    "state": "New Mexico",
    "woeid": "12521662"
  },
  {
    "city": "Russian Mission",
    "code": "RSH",
    "country": "United States",
    "icao": "PARS",
    "lat": "61.7833",
    "lon": "-161.333",
    "name": "Russian",
    "state": "Alaska",
    "woeid": "12799709"
  },
  {
    "city": "Olga",
    "code": "RSJ",
    "country": "United States",
    "icao": "",
    "lat": "48.6339",
    "lon": "-122.81",
    "name": "Rosario Seaplane Base",
    "state": "Washington",
    "woeid": "12524597"
  },
  {
    "city": "Rochester",
    "code": "RST",
    "country": "United States",
    "icao": "KRST",
    "lat": "43.9101",
    "lon": "-92.4884",
    "name": "Rochester International Airport",
    "state": "Minnesota",
    "woeid": "12521625"
  },
  {
    "city": "Fort Myers",
    "code": "RSW",
    "country": "United States",
    "icao": "KRSW",
    "lat": "26.5228",
    "lon": "-81.7531",
    "name": "Southwest Florida International Airport",
    "state": "Florida",
    "woeid": "12521921"
  },
  {
    "city": "North Clarendon",
    "code": "RUT",
    "country": "United States",
    "icao": "KRUT",
    "lat": "43.5291",
    "lon": "-72.945",
    "name": "Rutland State Airport",
    "state": "Vermont",
    "woeid": "12521687"
  },
  {
    "city": "San Diego",
    "code": "SAN",
    "country": "United States",
    "icao": "KSAN",
    "lat": "32.7299",
    "lon": "-117.195",
    "name": "San Diego International Airport",
    "state": "California",
    "woeid": "12520660"
  },
  {
    "city": "San Antonio",
    "code": "SAT",
    "country": "United States",
    "icao": "KSAT",
    "lat": "29.5252",
    "lon": "-98.4729",
    "name": "San Antonio International Airport",
    "state": "Texas",
    "woeid": "12521716"
  },
  {
    "city": "Savannah",
    "code": "SAV",
    "country": "United States",
    "icao": "KSAV",
    "lat": "32.1338",
    "lon": "-81.2133",
    "name": "Savannah International Airport",
    "state": "Georgia",
    "woeid": "12521756"
  },
  {
    "city": "Goleta",
    "code": "SBA",
    "country": "United States",
    "icao": "KSBA",
    "lat": "34.4255",
    "lon": "-119.835",
    "name": "Santa Barbara Municipal Airport",
    "state": "California",
    "woeid": "12521741"
  },
  {
    "city": "South Bend",
    "code": "SBN",
    "country": "United States",
    "icao": "KSBN",
    "lat": "41.7006",
    "lon": "-86.311",
    "name": "South Bend Regional Airport",
    "state": "Indiana",
    "woeid": "12520929"
  },
  {
    "city": "San Luis Obispo",
    "code": "SBP",
    "country": "United States",
    "icao": "KSBP",
    "lat": "35.239",
    "lon": "-120.641",
    "name": "San Luis Obispo County Airport",
    "state": "California",
    "woeid": "12521725"
  },
  {
    "city": "Salisbury",
    "code": "SBY",
    "country": "United States",
    "icao": "KSBY",
    "lat": "38.3431",
    "lon": "-75.517",
    "name": "Salisbury-Wicomico County Regional Airport",
    "state": "Maryland",
    "woeid": "12521706"
  },
  {
    "city": "Prudhoe Bay",
    "code": "SCC",
    "country": "United States",
    "icao": "PASC",
    "lat": "70.1975",
    "lon": "-148.458",
    "name": "Deadhorse Airport",
    "state": "Alaska",
    "woeid": "12519437"
  },
  {
    "city": "State College",
    "code": "SCE",
    "country": "United States",
    "icao": "KUNV",
    "lat": "40.8515",
    "lon": "-77.851",
    "name": "University Park Airport",
    "state": "Pennsylvania",
    "woeid": "12522252"
  },
  {
    "city": "Stockton",
    "code": "SCK",
    "country": "United States",
    "icao": "KSCK",
    "lat": "37.8973",
    "lon": "-121.253",
    "name": "Stockton Metropolitan Airport",
    "state": "California",
    "woeid": "12522018"
  },
  {
    "city": "Scammon Bay",
    "code": "SCM",
    "country": "United States",
    "icao": "",
    "lat": "61.8425",
    "lon": "-165.58",
    "name": "Scammon Bay",
    "state": "Alaska",
    "woeid": "2489516"
  },
  {
    "city": "Louisville",
    "code": "SDF",
    "country": "United States",
    "icao": "KSDF",
    "lat": "38.1865",
    "lon": "-85.7462",
    "name": "Louisville International Airport",
    "state": "Kentucky",
    "woeid": "12521983"
  },
  {
    "city": "Sand Point",
    "code": "SDP",
    "country": "United States",
    "icao": "PASD",
    "lat": "55.3184",
    "lon": "-160.523",
    "name": "Sand Point Airport",
    "state": "Alaska",
    "woeid": "29387742"
  },
  {
    "city": "Sidney",
    "code": "SDY",
    "country": "United States",
    "icao": "KSDY",
    "lat": "47.7113",
    "lon": "-104.184",
    "name": "Sidney Richland Municipal Airport",
    "state": "Montana",
    "woeid": "12521850"
  },
  {
    "city": "Seattle",
    "code": "SEA",
    "country": "United States",
    "icao": "KSEA",
    "lat": "47.4405",
    "lon": "-122.296",
    "name": "Tacoma International Airport",
    "state": "Washington",
    "woeid": "12522066"
  },
  {
    "city": "Sanford",
    "code": "SFB",
    "country": "United States",
    "icao": "KSFB",
    "lat": "28.773",
    "lon": "-81.2403",
    "name": "Orlando Sanford International Airport",
    "state": "Florida",
    "woeid": "23418431"
  },
  {
    "city": "San Francisco",
    "code": "SFO",
    "country": "United States",
    "icao": "KSFO",
    "lat": "37.6148",
    "lon": "-122.392",
    "name": "San Francisco International Airport",
    "state": "California",
    "woeid": "12521721"
  },
  {
    "city": "Springfield",
    "code": "SGF",
    "country": "United States",
    "icao": "KSGF",
    "lat": "37.243",
    "lon": "-93.3817",
    "name": "Springfield Regional Airport",
    "state": "Missouri",
    "woeid": "12521949"
  },
  {
    "city": "St. George",
    "code": "SGU",
    "country": "United States",
    "icao": "KSGU",
    "lat": "37.0973",
    "lon": "-113.591",
    "name": "St George Municipal Airport",
    "state": "Utah",
    "woeid": "12521964"
  },
  {
    "city": "Skagway",
    "code": "SGY",
    "country": "United States",
    "icao": "PAGY",
    "lat": "59.4594",
    "lon": "-135.314",
    "name": "Skagway Airport",
    "state": "Alaska",
    "woeid": "12521869"
  },
  {
    "city": "Weyers Cave",
    "code": "SHD",
    "country": "United States",
    "icao": "KSHD",
    "lat": "38.2637",
    "lon": "-78.9013",
    "name": "Shenandoah Valley Regional Airport",
    "state": "Virginia",
    "woeid": "12521830"
  },
  {
    "city": "Shungnak",
    "code": "SHG",
    "country": "United States",
    "icao": "PAHG",
    "lat": "66.8801",
    "lon": "-157.067",
    "name": "Shungnak Airport",
    "state": "Alaska",
    "woeid": "12524646"
  },
  {
    "city": "Shishmaref",
    "code": "SHH",
    "country": "United States",
    "icao": "PASH",
    "lat": "66.2568",
    "lon": "-166.067",
    "name": "Shishmaref",
    "state": "Alaska",
    "woeid": "2492966"
  },
  {
    "city": "Sheridan",
    "code": "SHR",
    "country": "United States",
    "icao": "KSHR",
    "lat": "44.7739",
    "lon": "-106.97",
    "name": "Sheridan County Airport",
    "state": "Wyoming",
    "woeid": "12521834"
  },
  {
    "city": "Shreveport",
    "code": "SHV",
    "country": "United States",
    "icao": "KSHV",
    "lat": "32.4549",
    "lon": "-93.8285",
    "name": "Shreveport Regional Airport",
    "state": "Louisiana",
    "woeid": "12521845"
  },
  {
    "city": "Shageluk",
    "code": "SHX",
    "country": "United States",
    "icao": "",
    "lat": "62.6333",
    "lon": "-159.583",
    "name": "Shageluk",
    "state": "Alaska",
    "woeid": "12799717"
  },
  {
    "city": "San Juan",
    "code": "SIG",
    "country": "United States",
    "icao": "TJIG",
    "lat": "18.4558",
    "lon": "-66.0981",
    "name": "Isla Grande Airport",
    "state": "Puerto Rico",
    "woeid": "12515661"
  },
  {
    "city": "Sitka",
    "code": "SIT",
    "country": "United States",
    "icao": "PASI",
    "lat": "57.0535",
    "lon": "-135.366",
    "name": "Sitka Airport",
    "state": "Alaska",
    "woeid": "12521866"
  },
  {
    "city": "San Jose",
    "code": "SJC",
    "country": "United States",
    "icao": "KSJC",
    "lat": "37.3679",
    "lon": "-121.926",
    "name": "Norman Y Mineta San Jose International Airport",
    "state": "California",
    "woeid": "12521722"
  },
  {
    "city": "San Angelo",
    "code": "SJT",
    "country": "United States",
    "icao": "KSJT",
    "lat": "31.3616",
    "lon": "-100.507",
    "name": "Mathis Field Airport",
    "state": "Texas",
    "woeid": "12520840"
  },
  {
    "city": "Carolina",
    "code": "SJU",
    "country": "United States",
    "icao": "TJSJ",
    "lat": "18.4367",
    "lon": "-66.0095",
    "name": "Luis Munoz Marin Airport",
    "state": "Puerto Rico",
    "woeid": "23388351"
  },
  {
    "city": "Shaktoolik",
    "code": "SKK",
    "country": "United States",
    "icao": "",
    "lat": "64.3549",
    "lon": "-161.193",
    "name": "Shaktoolik",
    "state": "Alaska",
    "woeid": "2491522"
  },
  {
    "city": "Salt Lake City",
    "code": "SLC",
    "country": "United States",
    "icao": "KSLC",
    "lat": "40.7862",
    "lon": "-111.982",
    "name": "Salt Lake City International Airport",
    "state": "Utah",
    "woeid": "12521709"
  },
  {
    "city": "Salem",
    "code": "SLE",
    "country": "United States",
    "icao": "KSLE",
    "lat": "44.9104",
    "lon": "-123.008",
    "name": "Mcnary Field Airport",
    "state": "Oregon",
    "woeid": "12520877"
  },
  {
    "city": "Saranac Lake",
    "code": "SLK",
    "country": "United States",
    "icao": "KSLK",
    "lat": "44.3804",
    "lon": "-74.2038",
    "name": "Adirondack Regional Airport",
    "state": "New York",
    "woeid": "12518529"
  },
  {
    "city": "Salina",
    "code": "SLN",
    "country": "United States",
    "icao": "KSLN",
    "lat": "38.7786",
    "lon": "-97.6397",
    "name": "Salina Municipal Airport",
    "state": "Kansas",
    "woeid": "12521703"
  },
  {
    "city": "Sleetmute",
    "code": "SLQ",
    "country": "United States",
    "icao": "PASL",
    "lat": "61.7",
    "lon": "-157.117",
    "name": "Sleetmute Airport",
    "state": "Alaska",
    "woeid": "2494667"
  },
  {
    "city": "Sacramento",
    "code": "SMF",
    "country": "United States",
    "icao": "KSMF",
    "lat": "38.683",
    "lon": "-121.591",
    "name": "Sacramento International Airport",
    "state": "California",
    "woeid": "12521693"
  },
  {
    "city": "St Michael",
    "code": "SMK",
    "country": "United States",
    "icao": "",
    "lat": "63.4735",
    "lon": "-162.052",
    "name": "Alaska",
    "state": "Alaska",
    "woeid": "2347560"
  },
  {
    "city": "Salmon",
    "code": "SMN",
    "country": "United States",
    "icao": "KSMN",
    "lat": "45.1148",
    "lon": "-113.888",
    "name": "Lemhi County Airport",
    "state": "Idaho",
    "woeid": "12520625"
  },
  {
    "city": "Santa Maria",
    "code": "SMX",
    "country": "United States",
    "icao": "KSMX",
    "lat": "34.8888",
    "lon": "-120.437",
    "name": "Santa Maria Public Airport",
    "state": "California",
    "woeid": "12521743"
  },
  {
    "city": "Santa Ana",
    "code": "SNA",
    "country": "United States",
    "icao": "KSNA",
    "lat": "33.6813",
    "lon": "-117.859",
    "name": "John Wayne Airport",
    "state": "California",
    "woeid": "12520383"
  },
  {
    "city": "Saint Paul Island",
    "code": "SNP",
    "country": "United States",
    "icao": "PASN",
    "lat": "57.1667",
    "lon": "-170.217",
    "name": "Saint Paul Island",
    "state": "Alaska",
    "woeid": "12799712"
  },
  {
    "city": "Seldovia",
    "code": "SOV",
    "country": "United States",
    "icao": "PASO",
    "lat": "59.4428",
    "lon": "-151.705",
    "name": "",
    "state": "Alaska",
    "woeid": "2490645"
  },
  {
    "city": "Show Low",
    "code": "SOW",
    "country": "United States",
    "icao": "KSOW",
    "lat": "34.2595",
    "lon": "-110.005",
    "name": "Show Low Municipal Airport",
    "state": "Arizona",
    "woeid": "12521843"
  },
  {
    "city": "Charlotte Amalie",
    "code": "SPB",
    "country": "United States",
    "icao": "KSPB",
    "lat": "18.3409",
    "lon": "-64.9698",
    "name": "St Thomas Seaplane Base",
    "state": "US Virgin Islands",
    "woeid": "12523060"
  },
  {
    "city": "Springfield",
    "code": "SPI",
    "country": "United States",
    "icao": "KSPI",
    "lat": "39.8445",
    "lon": "-89.672",
    "name": "Capital Airport",
    "state": "Illinois",
    "woeid": "12519058"
  },
  {
    "city": "Saipan",
    "code": "SPN",
    "country": "United States",
    "icao": "PGSN",
    "lat": "15.1333",
    "lon": "145.717",
    "name": "Saipan International Airport",
    "state": "Northern Mariana Islands",
    "woeid": "12523226"
  },
  {
    "city": "Wichita Falls",
    "code": "SPS",
    "country": "United States",
    "icao": "KSPS",
    "lat": "33.9862",
    "lon": "-98.4984",
    "name": "Sheppard Air Force Base",
    "state": "Texas",
    "woeid": "12521831"
  },
  {
    "city": "Sarasota",
    "code": "SRQ",
    "country": "United States",
    "icao": "KSRQ",
    "lat": "27.3868",
    "lon": "-82.5516",
    "name": "Sarasota Bradenton Airport",
    "state": "Florida",
    "woeid": "12521750"
  },
  {
    "city": "Stony River",
    "code": "SRV",
    "country": "United States",
    "icao": "",
    "lat": "62.8903",
    "lon": "-149.054",
    "name": "Alaska",
    "state": "Alaska",
    "woeid": "2347560"
  },
  {
    "city": "Christiansted",
    "code": "SSB",
    "country": "United States",
    "icao": "",
    "lat": "17.75",
    "lon": "-64.7",
    "name": "Christiansted Harbor Seaplane Base",
    "state": "US Virgin Islands",
    "woeid": "12523231"
  },
  {
    "city": "St. Cloud",
    "code": "STC",
    "country": "United States",
    "icao": "KSTC",
    "lat": "45.5463",
    "lon": "-94.066",
    "name": "St Cloud Regional Airport",
    "state": "Minnesota",
    "woeid": "12521961"
  },
  {
    "city": "St George Island",
    "code": "STG",
    "country": "United States",
    "icao": "",
    "lat": "62.8903",
    "lon": "-149.054",
    "name": "Alaska",
    "state": "Alaska",
    "woeid": "2347560"
  },
  {
    "city": "St. Louis",
    "code": "STL",
    "country": "United States",
    "icao": "KSTL",
    "lat": "38.7414",
    "lon": "-90.3647",
    "name": "Lambert St Louis International Airport",
    "state": "Missouri",
    "woeid": "12520553"
  },
  {
    "city": "Windsor",
    "code": "STS",
    "country": "United States",
    "icao": "KSTS",
    "lat": "38.511",
    "lon": "-122.805",
    "name": "Sonoma County Airport",
    "state": "California",
    "woeid": "12521904"
  },
  {
    "city": "Charlotte Amalie",
    "code": "STT",
    "country": "United States",
    "icao": "TIST",
    "lat": "18.3333",
    "lon": "-64.9667",
    "name": "Cyril E King International Airport",
    "state": "US Virgin Islands",
    "woeid": "12522972"
  },
  {
    "city": "Frederiksted",
    "code": "STX",
    "country": "United States",
    "icao": "TISX",
    "lat": "17.6988",
    "lon": "-64.7977",
    "name": "Henry E Rohlson International Airport",
    "state": "US Virgin Islands",
    "woeid": "12522971"
  },
  {
    "city": "Hailey",
    "code": "SUN",
    "country": "United States",
    "icao": "KSUN",
    "lat": "43.5065",
    "lon": "-114.301",
    "name": "Friedman Memorial Airport",
    "state": "Idaho",
    "woeid": "12519829"
  },
  {
    "city": "Sioux City",
    "code": "SUX",
    "country": "United States",
    "icao": "KSUX",
    "lat": "42.4012",
    "lon": "-96.3784",
    "name": "Sioux Gateway Airport",
    "state": "Iowa",
    "woeid": "12521862"
  },
  {
    "city": "Savoonga",
    "code": "SVA",
    "country": "United States",
    "icao": "PASA",
    "lat": "63.6951",
    "lon": "-170.465",
    "name": "Alaska",
    "state": "Alaska",
    "woeid": "2347560"
  },
  {
    "city": "Silver City",
    "code": "SVC",
    "country": "United States",
    "icao": "KSVC",
    "lat": "32.6301",
    "lon": "-108.164",
    "name": "Silver City-Grant County Airport",
    "state": "New Mexico",
    "woeid": "12521856"
  },
  {
    "city": "Stevens Village",
    "code": "SVS",
    "country": "United States",
    "icao": "",
    "lat": "66.0044",
    "lon": "-149.091",
    "name": "Stevens Village",
    "state": "Alaska",
    "woeid": "2499756"
  },
  {
    "city": "New Windsor",
    "code": "SWF",
    "country": "United States",
    "icao": "KSWF",
    "lat": "41.4869",
    "lon": "-74.0974",
    "name": "Stewart International Airport",
    "state": "New York",
    "woeid": "12522012"
  },
  {
    "city": "Stillwater",
    "code": "SWO",
    "country": "United States",
    "icao": "KSWO",
    "lat": "36.1618",
    "lon": "-97.0751",
    "name": "Stillwater Municipal Airport",
    "state": "Oklahoma",
    "woeid": "12522014"
  },
  {
    "city": "Sheldon Point",
    "code": "SXP",
    "country": "United States",
    "icao": "",
    "lat": "62.5333",
    "lon": "-164.833",
    "name": "Sheldon SPB",
    "state": "Alaska",
    "woeid": "2492171"
  },
  {
    "city": "Kodiak",
    "code": "SYB",
    "country": "United States",
    "icao": "",
    "lat": "58.1667",
    "lon": "-152.5",
    "name": "Seal Bay Airport",
    "state": "Alaska",
    "woeid": "12524652"
  },
  {
    "city": "Syracuse",
    "code": "SYR",
    "country": "United States",
    "icao": "KSYR",
    "lat": "43.1141",
    "lon": "-76.1121",
    "name": "Hancock International Airport",
    "state": "New York",
    "woeid": "12520075"
  },
  {
    "city": "Tanana",
    "code": "TAL",
    "country": "United States",
    "icao": "PATA",
    "lat": "47.7184",
    "lon": "-115.431",
    "name": "Ralph Calhoun",
    "state": "Alaska",
    "woeid": "2503916"
  },
  {
    "city": "Fort Leonard Wood",
    "code": "TBN",
    "country": "United States",
    "icao": "KTBN",
    "lat": "37.7327",
    "lon": "-92.1361",
    "name": "Waynesville Regional Airport At Forney Field",
    "state": "Missouri",
    "woeid": "12519767"
  },
  {
    "city": "Takotna",
    "code": "TCT",
    "country": "United States",
    "icao": "",
    "lat": "62.9845",
    "lon": "-156.07",
    "name": "Takotna",
    "state": "Alaska",
    "woeid": "2503638"
  },
  {
    "city": "Teterboro",
    "code": "TEB",
    "country": "United States",
    "icao": "KTEB",
    "lat": "40.8541",
    "lon": "-74.0662",
    "name": "Teterboro Airport",
    "state": "New Jersey",
    "woeid": "12522105"
  },
  {
    "city": "Valdez",
    "code": "TEK",
    "country": "United States",
    "icao": "",
    "lat": "60.8644",
    "lon": "-146.693",
    "name": "Tatitlek Seaplane Base",
    "state": "Alaska",
    "woeid": "12524670"
  },
  {
    "city": "Telluride",
    "code": "TEX",
    "country": "United States",
    "icao": "KTEX",
    "lat": "37.9544",
    "lon": "-107.901",
    "name": "Telluride Regional Airport",
    "state": "Colorado",
    "woeid": "12522097"
  },
  {
    "city": "Milan",
    "code": "TGC",
    "country": "United States",
    "icao": "KTGC",
    "lat": "35.9349",
    "lon": "-88.8506",
    "name": "Gibson County Airport",
    "state": "Tennessee",
    "woeid": "12519895"
  },
  {
    "city": "Tenakee Springs",
    "code": "TKE",
    "country": "United States",
    "icao": "",
    "lat": "57.7773",
    "lon": "-135.208",
    "name": "Tenakee Springs",
    "state": "Alaska",
    "woeid": "2504726"
  },
  {
    "city": "Tok",
    "code": "TKJ",
    "country": "United States",
    "icao": "PATJ",
    "lat": "48.1205",
    "lon": "21.4125",
    "name": "",
    "state": "Alaska",
    "woeid": "2506862"
  },
  {
    "city": "Teller",
    "code": "TLA",
    "country": "United States",
    "icao": "PATE",
    "lat": "65.2413",
    "lon": "-166.331",
    "name": "Teller",
    "state": "Alaska",
    "woeid": "2504609"
  },
  {
    "city": "Tallahassee",
    "code": "TLH",
    "country": "United States",
    "icao": "KTLH",
    "lat": "30.3964",
    "lon": "-84.3503",
    "name": "Tallahassee Regional Airport",
    "state": "Florida",
    "woeid": "12522075"
  },
  {
    "city": "Tatalina",
    "code": "TLJ",
    "country": "United States",
    "icao": "PATL",
    "lat": "44.2044",
    "lon": "23.5396",
    "name": "",
    "state": "Alaska",
    "woeid": "2347560"
  },
  {
    "city": "Tuluksak",
    "code": "TLT",
    "country": "United States",
    "icao": "",
    "lat": "61.0959",
    "lon": "-160.968",
    "name": "Tuluksak",
    "state": "Alaska",
    "woeid": "2508578"
  },
  {
    "city": "Tin City",
    "code": "TNC",
    "country": "United States",
    "icao": "PATC",
    "lat": "65.5639",
    "lon": "-167.919",
    "name": "Tin City AFS",
    "state": "Alaska",
    "woeid": "2506552"
  },
  {
    "city": "Tununak",
    "code": "TNK",
    "country": "United States",
    "icao": "",
    "lat": "60.5813",
    "lon": "-165.253",
    "name": "Tununak Airport",
    "state": "Alaska",
    "woeid": "29388569"
  },
  {
    "city": "Togiak Village",
    "code": "TOG",
    "country": "United States",
    "icao": "PATG",
    "lat": "37.1198",
    "lon": "-89.8786",
    "name": "Togiak Village",
    "state": "Alaska",
    "woeid": "2512308"
  },
  {
    "city": "Swanton",
    "code": "TOL",
    "country": "United States",
    "icao": "KTOL",
    "lat": "41.5923",
    "lon": "-83.8072",
    "name": "Toledo Express Airport",
    "state": "Ohio",
    "woeid": "12522152"
  },
  {
    "city": "Tampa",
    "code": "TPA",
    "country": "United States",
    "icao": "KTPA",
    "lat": "27.9744",
    "lon": "-82.5356",
    "name": "Tampa International Airport",
    "state": "Florida",
    "woeid": "12522077"
  },
  {
    "city": "Blountville",
    "code": "TRI",
    "country": "United States",
    "icao": "KTRI",
    "lat": "36.4805",
    "lon": "-82.4087",
    "name": "Tri-Cities Regional Airport",
    "state": "Tennessee",
    "woeid": "12522192"
  },
  {
    "city": "New York",
    "code": "TSS",
    "country": "United States",
    "icao": "",
    "lat": "40.7474",
    "lon": "-73.9912",
    "name": "East 34th Street Heliport",
    "state": "New York",
    "woeid": "12523248"
  },
  {
    "city": "Tulsa",
    "code": "TUL",
    "country": "United States",
    "icao": "KTUL",
    "lat": "36.1877",
    "lon": "-95.8892",
    "name": "Tulsa International Airport",
    "state": "Oklahoma",
    "woeid": "12522219"
  },
  {
    "city": "Tupelo",
    "code": "TUP",
    "country": "United States",
    "icao": "KTUP",
    "lat": "34.2662",
    "lon": "-88.766",
    "name": "Tupelo Municipal-C D Lemons Airport",
    "state": "Mississippi",
    "woeid": "12522222"
  },
  {
    "city": "Tucson",
    "code": "TUS",
    "country": "United States",
    "icao": "KTUS",
    "lat": "32.1204",
    "lon": "-110.936",
    "name": "Tucson International Airport",
    "state": "Arizona",
    "woeid": "12522214"
  },
  {
    "city": "Traverse City",
    "code": "TVC",
    "country": "United States",
    "icao": "KTVC",
    "lat": "44.7365",
    "lon": "-85.5796",
    "name": "Cherry Capital Airport",
    "state": "Michigan",
    "woeid": "12519167"
  },
  {
    "city": "Thief River Falls",
    "code": "TVF",
    "country": "United States",
    "icao": "KTVF",
    "lat": "48.0655",
    "lon": "-96.1791",
    "name": "Thief River Falls Regional Airport",
    "state": "Minnesota",
    "woeid": "12522121"
  },
  {
    "city": "Twin Hills",
    "code": "TWA",
    "country": "United States",
    "icao": "",
    "lat": "36.8259",
    "lon": "-83.3212",
    "name": "Twin Hills",
    "state": "Alaska",
    "woeid": "2509121"
  },
  {
    "city": "Twin Falls",
    "code": "TWF",
    "country": "United States",
    "icao": "KTWF",
    "lat": "42.4838",
    "lon": "-114.485",
    "name": "Twin Falls-Sun Valley Regional Airport",
    "state": "Idaho",
    "woeid": "12522233"
  },
  {
    "city": "Texarkana",
    "code": "TXK",
    "country": "United States",
    "icao": "KTXK",
    "lat": "33.457",
    "lon": "-93.9943",
    "name": "Texarkana Regional Airport",
    "state": "Arkansas",
    "woeid": "12522107"
  },
  {
    "city": "Tyler",
    "code": "TYR",
    "country": "United States",
    "icao": "KTYR",
    "lat": "32.3506",
    "lon": "-95.4118",
    "name": "Tyler Pounds Field Airport",
    "state": "Texas",
    "woeid": "12522238"
  },
  {
    "city": "Knoxville",
    "code": "TYS",
    "country": "United States",
    "icao": "KTYS",
    "lat": "35.8064",
    "lon": "-83.9889",
    "name": "Mcghee Tyson Airport",
    "state": "Tennessee",
    "woeid": "12520857"
  },
  {
    "city": "Pilot Point",
    "code": "UGB",
    "country": "United States",
    "icao": "",
    "lat": "57.4253",
    "lon": "-157.74",
    "name": "Ugashik Bay Airport",
    "state": "Alaska",
    "woeid": "12523252"
  },
  {
    "city": "Kodiak",
    "code": "UGI",
    "country": "United States",
    "icao": "",
    "lat": "57.8838",
    "lon": "-153.369",
    "name": "Uganik Airport",
    "state": "Alaska",
    "woeid": "12522240"
  },
  {
    "city": "Quincy",
    "code": "UIN",
    "country": "United States",
    "icao": "KUIN",
    "lat": "39.9348",
    "lon": "-91.196",
    "name": "Quincy Municipal Airport-Baldwin Field",
    "state": "Illinois",
    "woeid": "12521511"
  },
  {
    "city": "Unalakleet",
    "code": "UNK",
    "country": "United States",
    "icao": "PAUN",
    "lat": "63.8833",
    "lon": "-160.783",
    "name": "Unalakleet",
    "state": "Alaska",
    "woeid": "12799735"
  },
  {
    "city": "Hooper Bay",
    "code": "VAK",
    "country": "United States",
    "icao": "PAVA",
    "lat": "61.5338",
    "lon": "-165.584",
    "name": "Chevak Airport",
    "state": "Alaska",
    "woeid": "29388570"
  },
  {
    "city": "Blue Mountain",
    "code": "VBM",
    "country": "United States",
    "icao": "",
    "lat": "62.8903",
    "lon": "-149.054",
    "name": "Alaska",
    "state": "Alaska",
    "woeid": "2347560"
  },
  {
    "city": "Victoria",
    "code": "VCT",
    "country": "United States",
    "icao": "KVCT",
    "lat": "28.8449",
    "lon": "-96.9201",
    "name": "Victoria Regional Airport",
    "state": "Texas",
    "woeid": "12522283"
  },
  {
    "city": "Victorville",
    "code": "VCV",
    "country": "United States",
    "icao": "KVCV",
    "lat": "34.588",
    "lon": "-117.373",
    "name": "Southern California Logistics Airport",
    "state": "California",
    "woeid": "12519884"
  },
  {
    "city": "Valdez",
    "code": "VDZ",
    "country": "United States",
    "icao": "PAVD",
    "lat": "61.1294",
    "lon": "-146.256",
    "name": "Valdez Airport",
    "state": "Alaska",
    "woeid": "12522264"
  },
  {
    "city": "Venetie",
    "code": "VEE",
    "country": "United States",
    "icao": "",
    "lat": "67.009",
    "lon": "-146.406",
    "name": "Venetie",
    "state": "Alaska",
    "woeid": "2511598"
  },
  {
    "city": "Vernal",
    "code": "VEL",
    "country": "United States",
    "icao": "KVEL",
    "lat": "40.4485",
    "lon": "-109.514",
    "name": "Vernal Airport",
    "state": "Utah",
    "woeid": "12522278"
  },
  {
    "city": "Visalia",
    "code": "VIS",
    "country": "United States",
    "icao": "KVIS",
    "lat": "36.3253",
    "lon": "-119.394",
    "name": "Visalia Municipal Airport",
    "state": "California",
    "woeid": "12522291"
  },
  {
    "city": "Valdosta",
    "code": "VLD",
    "country": "United States",
    "icao": "KVLD",
    "lat": "30.7892",
    "lon": "-83.2787",
    "name": "Valdosta Regional Airport",
    "state": "Georgia",
    "woeid": "12522265"
  },
  {
    "city": "Eglin Village",
    "code": "VPS",
    "country": "United States",
    "icao": "KVPS",
    "lat": "30.496",
    "lon": "-86.55",
    "name": "Eglin Air Force Base",
    "state": "Florida",
    "woeid": "12519601"
  },
  {
    "city": "Puerto Ferro",
    "code": "VQS",
    "country": "United States",
    "icao": "TJVQ",
    "lat": "18.1355",
    "lon": "-65.487",
    "name": "Aeropuerto Antonio Rivera Rodrguez",
    "state": "Puerto Rico",
    "woeid": "12524420"
  },
  {
    "city": "Wales",
    "code": "WAA",
    "country": "United States",
    "icao": "",
    "lat": "65.6112",
    "lon": "-168.098",
    "name": "Wales",
    "state": "Alaska",
    "woeid": "2513417"
  },
  {
    "city": "Stebbins",
    "code": "WBB",
    "country": "United States",
    "icao": "",
    "lat": "63.52",
    "lon": "-162.279",
    "name": "Stebbins",
    "state": "Alaska",
    "woeid": "2499397"
  },
  {
    "city": "Beaver",
    "code": "WBQ",
    "country": "United States",
    "icao": "PAWB",
    "lat": "66.359",
    "lon": "-147.396",
    "name": "Alaska",
    "state": "Alaska",
    "woeid": "2347560"
  },
  {
    "city": "Aleknagik",
    "code": "WKK",
    "country": "United States",
    "icao": "",
    "lat": "59.2667",
    "lon": "-158.633",
    "name": "Aleknagik",
    "state": "Alaska",
    "woeid": "12799627"
  },
  {
    "city": "Selawik",
    "code": "WLK",
    "country": "United States",
    "icao": "PASK",
    "lat": "62.8903",
    "lon": "-149.054",
    "name": "Alaska",
    "state": "Alaska",
    "woeid": "2347560"
  },
  {
    "city": "Meyers Chuck",
    "code": "WMK",
    "country": "United States",
    "icao": "",
    "lat": "55.7389",
    "lon": "-132.258",
    "name": "Meyers Chuck",
    "state": "Alaska",
    "woeid": "2449996"
  },
  {
    "city": "White Mountain",
    "code": "WMO",
    "country": "United States",
    "icao": "",
    "lat": "64.6811",
    "lon": "-163.408",
    "name": "White Mountain",
    "state": "Alaska",
    "woeid": "2519364"
  },
  {
    "city": "Napakiak",
    "code": "WNA",
    "country": "United States",
    "icao": "",
    "lat": "60.7049",
    "lon": "-161.766",
    "name": "Napaskiak",
    "state": "Alaska",
    "woeid": "2456992"
  },
  {
    "city": "Wrangell",
    "code": "WRG",
    "country": "United States",
    "icao": "PAWG",
    "lat": "56.4876",
    "lon": "-132.378",
    "name": "Wrangell Airport",
    "state": "Alaska",
    "woeid": "12522517"
  },
  {
    "city": "Worland",
    "code": "WRL",
    "country": "United States",
    "icao": "KWRL",
    "lat": "43.9747",
    "lon": "-107.953",
    "name": "Worland Municipal Airport",
    "state": "Wyoming",
    "woeid": "12522515"
  },
  {
    "city": "South Naknek",
    "code": "WSN",
    "country": "United States",
    "icao": "",
    "lat": "58.7285",
    "lon": "-157.014",
    "name": "Naknek",
    "state": "Alaska",
    "woeid": "2456884"
  },
  {
    "city": "Westerly",
    "code": "WST",
    "country": "United States",
    "icao": "KWST",
    "lat": "41.3492",
    "lon": "-71.8115",
    "name": "Westerly State Airport",
    "state": "Rhode Island",
    "woeid": "12522397"
  },
  {
    "city": "Westsound",
    "code": "WSX",
    "country": "United States",
    "icao": "",
    "lat": "48.8907",
    "lon": "-116.982",
    "name": "United States",
    "state": "Washington",
    "woeid": "23424977"
  },
  {
    "city": "Noatak",
    "code": "WTK",
    "country": "United States",
    "icao": "PAWN",
    "lat": "62.8903",
    "lon": "-149.054",
    "name": "Alaska",
    "state": "Alaska",
    "woeid": "2347560"
  },
  {
    "city": "Tuntutuliak",
    "code": "WTL",
    "country": "United States",
    "icao": "",
    "lat": "60.3432",
    "lon": "-162.664",
    "name": "Tuntutuliak",
    "state": "Alaska",
    "woeid": "2508647"
  },
  {
    "city": "Whale Pass",
    "code": "WWP",
    "country": "United States",
    "icao": "",
    "lat": "62.8903",
    "lon": "-149.054",
    "name": "Alaska",
    "state": "Alaska",
    "woeid": "2347560"
  },
  {
    "city": "Newtok",
    "code": "WWT",
    "country": "United States",
    "icao": "",
    "lat": "62.8903",
    "lon": "-149.054",
    "name": "Alaska",
    "state": "Alaska",
    "woeid": "2347560"
  },
  {
    "city": "West Yellowstone",
    "code": "WYS",
    "country": "United States",
    "icao": "KWYS",
    "lat": "44.6876",
    "lon": "-111.114",
    "name": "Yellowstone Airport",
    "state": "Montana",
    "woeid": "12522531"
  },
  {
    "city": "Bentonville",
    "code": "XNA",
    "country": "United States",
    "icao": "KXNA",
    "lat": "36.2756",
    "lon": "-94.2955",
    "name": "Northwest Arkansas Regional Airport",
    "state": "Arkansas",
    "woeid": "29388192"
  },
  {
    "city": "New York",
    "code": "XNY",
    "country": "United States",
    "icao": "",
    "lat": "42.8767",
    "lon": "-77.8826",
    "name": "York",
    "state": "New York",
    "woeid": "2524848"
  },
  {
    "city": "Longville",
    "code": "XVG",
    "country": "United States",
    "icao": "KXVG",
    "lat": "46.9929",
    "lon": "-94.2075",
    "name": "Longville Municipal Airport",
    "state": "Minnesota",
    "woeid": "12520699"
  },
  {
    "city": "Rail (Generic)",
    "code": "XZU",
    "country": "United States",
    "icao": "",
    "lat": "37.2997",
    "lon": "-92.3047",
    "name": "Off line Point",
    "state": "Missouri",
    "woeid": "2478178"
  },
  {
    "city": "Yakutat",
    "code": "YAK",
    "country": "United States",
    "icao": "PAYA",
    "lat": "59.5103",
    "lon": "-139.668",
    "name": "Yakutat Airport",
    "state": "Alaska",
    "woeid": "12522527"
  },
  {
    "city": "Ypsilanti",
    "code": "YIP",
    "country": "United States",
    "icao": "KYIP",
    "lat": "42.2385",
    "lon": "-83.5467",
    "name": "Willow Run Airport",
    "state": "Michigan",
    "woeid": "12522472"
  },
  {
    "city": "Yakima",
    "code": "YKM",
    "country": "United States",
    "icao": "KYKM",
    "lat": "46.5703",
    "lon": "-120.54",
    "name": "Yakima Air Terminal",
    "state": "Washington",
    "woeid": "12522526"
  },
  {
    "city": "Vienna",
    "code": "YNG",
    "country": "United States",
    "icao": "KYNG",
    "lat": "41.2576",
    "lon": "-80.6648",
    "name": "Youngstown-Warren Regional Airport",
    "state": "Ohio",
    "woeid": "12522541"
  },
  {
    "city": "Yuma",
    "code": "YUM",
    "country": "United States",
    "icao": "KYUM",
    "lat": "32.6685",
    "lon": "-114.599",
    "name": "Yuma International Airport",
    "state": "Arizona",
    "woeid": "12522544"
  },
  {
    "city": "Baltimore",
    "code": "ZBP",
    "country": "United States",
    "icao": "",
    "lat": "39.3117",
    "lon": "-76.6183",
    "name": "",
    "state": "Maryland",
    "woeid": "2358820"
  },
  {
    "city": "Philadelphia",
    "code": "ZFV",
    "country": "United States",
    "icao": "",
    "lat": "40.9946",
    "lon": "-77.6045",
    "name": "Philadelphia Rail",
    "state": "Pennsylvania",
    "woeid": "2347597"
  },
  {
    "city": "Buffalo",
    "code": "ZFZ",
    "country": "United States",
    "icao": "",
    "lat": "40.7145",
    "lon": "-74.0071",
    "name": "New York",
    "state": "New York",
    "woeid": "2459115"
  },
  {
    "city": "Groton",
    "code": "ZGD",
    "country": "United States",
    "icao": "",
    "lat": "41.3564",
    "lon": "-72.0965",
    "name": "New London",
    "state": "Connecticut",
    "woeid": "2458689"
  },
  {
    "city": "Houston",
    "code": "ZHO",
    "country": "United States",
    "icao": "",
    "lat": "29.7605",
    "lon": "-95.3698",
    "name": "Bus Station",
    "state": "Texas",
    "woeid": "2424766"
  },
  {
    "city": "Albany",
    "code": "ZLY",
    "country": "United States",
    "icao": "",
    "lat": "42.7426",
    "lon": "-73.809",
    "name": "Albany International Airport",
    "state": "New York",
    "woeid": "12518554"
  },
  {
    "city": "Newark",
    "code": "ZME",
    "country": "United States",
    "icao": "",
    "lat": "40.1428",
    "lon": "-74.7267",
    "name": "New Jersey",
    "state": "New Jersey",
    "woeid": "2347589"
  },
  {
    "city": "Milwaukee",
    "code": "ZML",
    "country": "United States",
    "icao": "",
    "lat": "42.9471",
    "lon": "-87.9051",
    "name": "General Mitchell International Airport",
    "state": "Wisconsin",
    "woeid": "12519880"
  },
  {
    "city": "Richmond",
    "code": "ZRD",
    "country": "United States",
    "icao": "",
    "lat": "37.5406",
    "lon": "-77.4334",
    "name": "Richmond",
    "state": "Virginia",
    "woeid": "2480894"
  },
  {
    "city": "Lancaster",
    "code": "ZRL",
    "country": "United States",
    "icao": "",
    "lat": "40.038",
    "lon": "-76.3013",
    "name": "Lancaster",
    "state": "Pennsylvania",
    "woeid": "2436076"
  },
  {
    "city": "Newark",
    "code": "ZRP",
    "country": "United States",
    "icao": "",
    "lat": "40.7333",
    "lon": "-74.1667",
    "name": "Pennsylvania Station",
    "state": "New Jersey",
    "woeid": "12760686"
  },
  {
    "city": "Hartford",
    "code": "ZRT",
    "country": "United States",
    "icao": "",
    "lat": "41.7633",
    "lon": "-72.674",
    "name": "Hartford",
    "state": "Connecticut",
    "woeid": "2418244"
  },
  {
    "city": "Boston",
    "code": "ZRU",
    "country": "United States",
    "icao": "",
    "lat": "42.322",
    "lon": "-71.0918",
    "name": "",
    "state": "Massachusetts",
    "woeid": "2367105"
  },
  {
    "city": "Providence",
    "code": "ZRV",
    "country": "United States",
    "icao": "",
    "lat": "41.8238",
    "lon": "-71.412",
    "name": "Providence",
    "state": "Rhode Island",
    "woeid": "2477058"
  },
  {
    "city": "Springfield",
    "code": "ZSF",
    "country": "United States",
    "icao": "",
    "lat": "42.1039",
    "lon": "-72.592",
    "name": "Springfield MA RR",
    "state": "Massachusetts",
    "woeid": "12758361"
  },
  {
    "city": "Schenectady",
    "code": "ZTD",
    "country": "United States",
    "icao": "",
    "lat": "42.8161",
    "lon": "-73.9442",
    "name": "",
    "state": "New York",
    "woeid": "2489634"
  },
  {
    "city": "Rochester",
    "code": "ZTE",
    "country": "United States",
    "icao": "",
    "lat": "43.1531",
    "lon": "-77.6177",
    "name": "",
    "state": "New York",
    "woeid": "2482949"
  },
  {
    "city": "Stamford",
    "code": "ZTF",
    "country": "United States",
    "icao": "",
    "lat": "41.0464",
    "lon": "-73.5429",
    "name": "",
    "state": "Connecticut",
    "woeid": "2498846"
  },
  {
    "city": "Princeton",
    "code": "ZTJ",
    "country": "United States",
    "icao": "",
    "lat": "40.1428",
    "lon": "-74.7267",
    "name": "New Jersey",
    "state": "New Jersey",
    "woeid": "2347589"
  },
  {
    "city": "Philadelphia",
    "code": "ZTN",
    "country": "United States",
    "icao": "",
    "lat": "40.217",
    "lon": "-74.7551",
    "name": "",
    "state": "New Jersey",
    "woeid": "2347589"
  },
  {
    "city": "Boston",
    "code": "ZTO",
    "country": "United States",
    "icao": "",
    "lat": "42.3374",
    "lon": "-71.0591",
    "name": "",
    "state": "Massachusetts",
    "woeid": "2367105"
  },
  {
    "city": "Louisville",
    "code": "ZTV",
    "country": "United States",
    "icao": "",
    "lat": "38.1865",
    "lon": "-85.7462",
    "name": "Louisville International Airport",
    "state": "Kentucky",
    "woeid": "12521983"
  },
  {
    "city": "Boston",
    "code": "ZTY",
    "country": "United States",
    "icao": "",
    "lat": "42.3433",
    "lon": "-71.0506",
    "name": "",
    "state": "Massachusetts",
    "woeid": "2367105"
  },
  {
    "city": "Utica",
    "code": "ZUA",
    "country": "United States",
    "icao": "",
    "lat": "43.0958",
    "lon": "-75.2428",
    "name": "Utica",
    "state": "New York",
    "woeid": "2510530"
  },
  {
    "city": "Harrisburg",
    "code": "ZUG",
    "country": "United States",
    "icao": "",
    "lat": "47.1715",
    "lon": "8.51622",
    "name": "",
    "state": "Pennsylvania",
    "woeid": "2418046"
  },
  {
    "city": "Zuni",
    "code": "ZUN",
    "country": "United States",
    "icao": "KZUN",
    "lat": "35.0843",
    "lon": "-108.789",
    "name": "Black Rock Airport",
    "state": "New Mexico",
    "woeid": "12518848"
  },
  {
    "city": "New Haven",
    "code": "ZVE",
    "country": "United States",
    "icao": "",
    "lat": "41.3071",
    "lon": "-72.9249",
    "name": "New Haven",
    "state": "Connecticut",
    "woeid": "2458410"
  },
  {
    "city": "Hampton",
    "code": "ZWB",
    "country": "United States",
    "icao": "",
    "lat": "37.0294",
    "lon": "-76.3467",
    "name": "Williamsburg Rail",
    "state": "Virginia",
    "woeid": "12767461"
  },
  {
    "city": "Wilmington",
    "code": "ZWI",
    "country": "United States",
    "icao": "",
    "lat": "41.1418",
    "lon": "-80.3211",
    "name": "Wilmington Rail",
    "state": "Pennsylvania",
    "woeid": "28744866"
  },
  {
    "city": "Washington",
    "code": "ZWU",
    "country": "United States",
    "icao": "",
    "lat": "38.9",
    "lon": "-77.25",
    "name": "Union Station",
    "state": "Virginia",
    "woeid": "12766844"
  },
  {
    "city": "Glenview",
    "code": "ZWV",
    "country": "United States",
    "icao": "",
    "lat": "39.7393",
    "lon": "-89.5041",
    "name": "Illinois",
    "state": "Illinois",
    "woeid": "2347572"
  },
  {
    "city": "Hampton",
    "code": "ZWW",
    "country": "United States",
    "icao": "",
    "lat": "36.9805",
    "lon": "-76.4295",
    "name": "Newport News",
    "state": "Virginia",
    "woeid": "2459618"
  },
  {
    "city": "New York",
    "code": "ZYP",
    "country": "United States",
    "icao": "",
    "lat": "40.7501",
    "lon": "40.7501",
    "name": "Penn Station",
    "state": "New York",
    "woeid": "23682829"
  },
  {
    "city": "Syracuse",
    "code": "ZYQ",
    "country": "United States",
    "icao": "",
    "lat": "43.05",
    "lon": "-76.1474",
    "name": "Syracuse",
    "state": "New York",
    "woeid": "2503418"
  }
]